stop_id,stop_code,stop_name,stop_lat,stop_lon
0600200410,,Bus Station,53.25845768634,-2.12518711992
0600MA0001,CHEGPTG,Fallibroome Road,53.25947438766,-2.16167678559
0600MA00019,cheagmtd,Dandy Cock PH,53.35942476384,-2.03758446064
0600MA0002,CHEGPTJ,Pavilion Way,53.26369602530,-2.15031387978
0600MA0003,CHEGPTM,The Whitfields,53.26326192332,-2.14520016864
0600MA0005,CHEGPTW,Prestbury Road,53.26309102242,-2.13773372823
0600MA0006,CHEGPWA,Prestbury Road,53.26302693461,-2.13873796346
0600MA0007,CHEGPWD,Coare Street,53.26404709904,-2.12670267901
0600MA0008,CHEGPWG,Coare Street,53.26448740357,-2.12683891273
0600MA0009,CHEGPWJ,Beechwood Mews,53.26738881822,-2.12866169240
0600MA0009A,CHEPMTJ,Beechwood Mews,53.26746089010,-2.12851197706
0600MA0010,CHEGPWM,Badger Road,53.27101251996,-2.12751802048
0600MA0011,CHEGPWP,Badger Road,53.27200123193,-2.12756595302
0600MA0014,CHEGPWT,Marlborough Drive,53.27821200508,-2.12798940106
0600MA0015,CHEGTAD,Marlborough Drive,53.27817629190,-2.12776433970
0600MA0016,CHEGTAG,Fitz Crescent,53.27456501350,-2.12569913876
0600MA0016A,CHETDMP,Fitz Crescent,53.27437651926,-2.12544365890
0600MA0044,CHEGTJA,Langford Street,53.26013715874,-2.13472608940
0600MA0045,CHEGTJD,Great Queen Street,53.26021991282,-2.13307737490
0600MA0046,CHEADGP,King Edward Street,53.26124988143,-2.12829843601
0600MA0047,CHEADGT,St Alban's Church,53.26140165179,-2.12925832121
0600MA0049,CHEGTJG,Tesco,53.25809523481,-2.12791422817
0600MA0050,CHEGTJM,Tesco,53.25821186276,-2.12812443654
0600MA0096,CHEGWDT,Lord Street Alighting Only,53.25554685155,-2.12372466610
0600MA0097,CHEGWDW,Park Green,53.25536868728,-2.12216529654
0600MA0174,CHEMJDP,Grove Park,53.30025233793,-2.37215235769
0600MA0175,CHEMJDT,Grove Park,53.30009901774,-2.37231607583
0600MA0176,CHEATMT,Highland Way,53.29187052919,-2.37351963512
0600MA0177,CHEMJDW,Valley Way,53.29367388051,-2.37460055242
0600MA0178,CHEATMW,Railway Station,53.30167523746,-2.37129443081
0600MA0180,CHEMJGD,Carrwood,53.29779457022,-2.36171826331
0600MA0181,CHEMJGJ,Carrwood,53.29788509277,-2.36150897351
0600MA0182,CHEMJGM,Manor Lane,53.28834798535,-2.34638280926
0600MA0183,CHEMJGP,Legh Arms PH,53.30000453626,-2.36508299440
0600MA0184,CHEMJGT,Legh Arms PH,53.30001251333,-2.36541316562
0600MA0187,CHEMJMD,Church Hill,53.30266484870,-2.37389899328
0600MA0190,CHEMJMG,Lowe Drive,53.30636204583,-2.36132550543
0600MA0191,CHEMJMJ,Lowe Drive,53.30641524894,-2.36156606581
0600MA0192,CHEMJMP,Manor Park School,53.30427275735,-2.35964216939
0600MA0193,CHEMJMT,Beech Drive,53.30368537502,-2.36067264264
0600MA0195,CHEMJMW,Sandiway,53.30297290683,-2.36440306040
0600MA0196,CHEMJPA,The Shambles,53.30274530022,-2.36534647705
0600MA0232,CHEMPAD,Broadoak Lane,53.31558392392,-2.33696692780
0600MA0233,CHEMPAG,Broadoak Lane,53.31592366190,-2.33761504659
0600MA0234,CHEMPAJ,Ryecroft Lane,53.31357847994,-2.34360030098
0600MA0235,CHEMPAM,Council Depot,53.31011749626,-2.34989095164
0600MA0236,CHEATWP,Falcon Bearer PH,53.30662219158,-2.34944215871
0600MA0237,CHEATWT,St Johns Wood School,53.30466523783,-2.35161709124
0600MA0238,CHEAWAD,Seven Sisters Lane,53.28725180175,-2.33681880566
0600MA0249,CHEAWAG,Ye Olde Parkgate Inn,53.26144947267,-2.32219438269
0600MA0250,CHEAWAJ,Bucklow Avenue,53.31394918340,-2.33010968384
0600MA0251,CHEAWAM,Bucklow Avenue,53.31420032196,-2.33030674836
0600MA0252,CHEAWAP,Victory Hall,53.31375995468,-2.31703495702
0600MA0253,CHEMPDP,Victory Hall,53.31391283985,-2.31700607167
0600MA0254,CHEMPDT,Woodside Nursery,53.31130585725,-2.30328386918
0600MA0255,CHEMPDW,Woodside Nursery,53.31142320486,-2.30308958900
0600MA0256,CHEMPGA,Bird in Hand,53.31134622276,-2.29797109910
0600MA0257,CHEMPGD,Clay Lane,53.30804898407,-2.29002417471
0600MA0258,CHEMPGJ,Lindow End Farm,53.30426723496,-2.27764846892
0600MA0259,CHEMPGM,Carr Lane,53.30885146431,-2.26177002521
0600MA0260,CHEMPGP,Carr Lane,53.30870784445,-2.26167909969
0600MA0261,CHEMPGT,Upcast Lane,53.30959658156,-2.25808261824
0600MA0262,CHEMPGW,Upcast Lane,53.30984134994,-2.25712357810
0600MA0270,CHEMPJW,Tower Garage,53.30472217043,-2.23768965777
0600MA0271,CHEMPMA,Tower Garage,53.30450584445,-2.23798857941
0600MA0272,CHEMPMD,Clifton Street,53.30249600473,-2.23616172623
0600MA0273,CHEMPMG,Clifton Street,53.30210916648,-2.23632464876
0600MA0274,CHEAWAT,Nat West Bank,53.30032968558,-2.23617977149
0600MA0275,CHEAWAW,Nat West Bank,53.30023030478,-2.23643430273
0600MA0276,CHEMPMJ,Beechfield Road,53.29724655462,-2.23617774803
0600MA0277,CHEMPMP,Beechfield Road,53.29722899351,-2.23596759978
0600MA0278,CHEMPMT,Alderley Cross,53.28896792619,-2.23617704282
0600MA0279,CHEAWDA,Alderley Cross,53.28853644132,-2.23618966132
0600MA0280,CHEMPMW,Bradford Lane,53.28627844283,-2.23710718488
0600MA0281,CHEMPTA,Primary School,53.28620590630,-2.23742177870
0600MA0282,CHEMPTD,Nether Alderley Mill,53.28240543576,-2.23653077977
0600MA0284,CHEMPTJ,AstraZeneca Main Gate,53.27975306593,-2.23687606025
0600MA0287,CHEMPTM,Alderley Park Nursery,53.26746822757,-2.23545869338
0600MA0288,CHEMPTP,Alderley Park Nursery,53.26837331978,-2.23685807223
0600MA0289,CHEAWDM,Monks Heath Motors Ltd,53.26388933646,-2.23614363607
0600MA0290,CHEMPTW,Stubby Lane,53.26546488744,-2.25244922067
0600MA0290A,CHEPTGA,Stubby Lane,53.26566949388,-2.25345493239
0600MA0291,CHEAWDP,The Ivy House,53.26535828153,-2.27228368604
0600MA0291A,CHEGPAM,The Ivy House,53.26548429407,-2.27220952449
0600MA0292,CHEMPWA,Shell Garage,53.26635846631,-2.27513869041
0600MA0293,CHEMPWD,Shell Garage,53.26643825521,-2.27561897571
0600MA0294,CHEAWDT,Dixon Drive,53.27098730013,-2.28298056404
0600MA0298,CHEMPWJ,Gorseyknoll,53.25921487290,-2.16734215271
0600MA0298A,CHEPTAG,Gorseyknoll,53.25936759704,-2.16740271131
0600MA0299,CHEMPWM,Cock Inn PH,53.25925276050,-2.17228911674
0600MA0300,CHEMPWP,Cock Inn PH,53.25910889745,-2.17231851835
0600MA0301,CHEMPWT,Church Lane,53.25917499150,-2.17629122055
0600MA0302,CHEMTAD,Church Lane,53.25902053547,-2.17739986460
0600MA0303,CHEMTAG,Blacksmith's Arms PH,53.25946229170,-2.18248344989
0600MA0304,CHEMTAJ,Blacksmith's Arms PH,53.25946899670,-2.18396753104
0600MA0305,CHEMTAM,Rough Heys Lane,53.26022732860,-2.19325003082
0600MA0306,CHEMTAP,Rough Heys Lane,53.26010160818,-2.19317451009
0600MA0307,CHEMTAT,Birtles Lane,53.26263233723,-2.21646779357
0600MA0308,CHEMTAW,Birtles Lane,53.26254966382,-2.21744182414
0600MA0309,CHEAWGD,Crossroads,53.26403953153,-2.23290618330
0600MA0310,CHEAWGJ,Tiger Lily,53.26453963237,-2.23457303970
0600MA0324,CHEMTGD,Clarke Lane,53.28587599638,-2.12268746949
0600MA0325,CHEMTGJ,Clarke Lane,53.28601076515,-2.12274785517
0600MA0378,CHEAWMW,Swan Hotel,53.35787503546,-2.01264172501
0600MA0379,CHEAWPA,Swan Hotel,53.35797399677,-2.01181538256
0600MA0380,CHEMWDG,Peveril Gardens,53.35802757897,-2.01488049170
0600MA0381,CHEMWDJ,Peveril Gardens,53.35814446128,-2.01464013295
0600MA0382,CHEMWDM,Overdale Road,53.35866535641,-2.01785570639
0600MA0383,CHEMWDP,Overdale Road,53.35874629922,-2.01755523625
0600MA0384,CHEMWDT,Lower Greenshall Lane,53.35842220413,-2.02066529873
0600MA0385,CHEMWDW,Lower Greenshall Lane,53.35807160026,-2.02093557672
0600MA0386,CHEMWGA,Buxton Road,53.35829546879,-2.02526290654
0600MA0387,CHEMWGD,Buxton Road,53.35852017782,-2.02529309110
0600MA0388,CHEMWGJ,White Lion PH,53.35904035689,-2.03023673494
0600MA0389,CHEMWGM,White Lion PH,53.35920210966,-2.03040212966
0600MA0390,CHEMWGP,The Albert Hotel,53.35992043560,-2.03324249070
0600MA0391,CHEMWGT,The Albert Hotel,53.35991128964,-2.03379843198
0600MA0392,CHEMWGW,Dandy Cock PH,53.35937971068,-2.03793000600
0600MA0394,CHEAWPG,Ram's Head Hotel,53.35853400261,-2.04028819836
0600MA0395,CHEAWPJ,Ram's Head Hotel,53.35866876535,-2.04048365385
0600MA0396,CHEMWJA,Railway Station,53.35839838101,-2.04255686002
0600MA0397,CHEMWJD,Railway Station,53.35836203908,-2.04362360493
0600MA0398,CHEMWJG,Lyme Park,53.35762973324,-2.05391486261
0600MA0399,CHEMWJM,Lyme Park,53.35786347815,-2.05382500956
0600MA0400,CHEMWJP,Park Road,53.35984913836,-2.05561557176
0600MA0401,CHEMWJT,Park Road,53.36042328922,-2.05796035002
0600MA0417,CHEAWTW,Freshfield Drive,53.27347806049,-2.13332856115
0600MA0418,CHEMWMT,Tytherington Club,53.28104691357,-2.13303720552
0600MA0422,CHEMWPG,Kent Avenue,53.28839148681,-2.11504441609
0600MA0422A,CHETATA,Kent Avenue,53.28845579123,-2.11360453541
0600MA0423,CHEGADA,Waggon & Horses,53.29350198986,-2.10985236960
0600MA0424,CHEMWPJ,Beechway,53.29318415135,-2.10343060390
0600MA0425,CHEMWPM,Beechway,53.29310344843,-2.10320537567
0600MA0426,CHEMWPT,Jackson Lane,53.29388892310,-2.09914160648
0600MA0426A,CHETATP,Jackson Close,53.29303497117,-2.09916962842
0600MA0427,CHEMWPW,Bull's Head,53.29109399620,-2.09846005192
0600MA0429,CHEGADJ,Waggon & Horses,53.29358272184,-2.11003260548
0600MA0430,CHEGADM,Waggon & Horses,53.29419368956,-2.11031922807
0600MA0431,CHEMWTA,Hawthorn Road,53.29554343077,-2.10876239754
0600MA0432,CHEMWTD,Hawthorn Road,53.29617303653,-2.10832890612
0600MA0433,CHEMWTG,Adlington Road,53.29719117400,-2.10564584050
0600MA0434,CHEMWTJ,Adlington Road,53.29732601778,-2.10563117040
0600MA0435,CHEMWTM,Aquaduct,53.29805946734,-2.09940635624
0600MA0436,CHEMWTP,Aquaduct,53.29826650771,-2.09904674235
0600MA0437,CHEMWTW,High Street,53.29769428284,-2.09530947009
0600MA0438,CHEPADA,High Street,53.29788246632,-2.09603007548
0600MA0439,CHEPADG,Cotton Tree,53.29860446134,-2.09237069571
0600MA0443,CHEPADP,Beeston Mount,53.30050326760,-2.08950889174
0600MA0444,CHEPADT,Beeston Mount,53.30042252723,-2.08929865592
0600MA0445,CHEGADT,Saint Christopher's Church,53.30945130700,-2.08362955040
0600MA0446,CHEGADW,Saint Christopher's Church,53.30930741413,-2.08373432338
0600MA0447,CHEPADW,Shrigley Hall Hotel,53.31067844042,-2.08956025260
0600MA0447A,CHEPWTJ,Shrigley Hall Hotel,53.31049867810,-2.08954486700
0600MA0448,CHEPAGA,Cawley Lane,53.32661346186,-2.11294039123
0600MA0449,CHEPAGD,Cawley Lane,53.32662270660,-2.11267016471
0600MA0450,CHEGAGA,Wood Lanes Church,53.33228134810,-2.09705352693
0600MA0451,CHEGAGD,Wood Lanes Church,53.33240728706,-2.09693368577
0600MA0452,CHEPAGJ,Joyley,53.33426310017,-2.10270428836
0600MA0452A,CHETADT,Joyley,53.33436209177,-2.10256937682
0600MA0453,CHEPAGM,Sutton Road,53.34302501399,-2.10502340929
0600MA0453A,CHETADJ,Sutton Road,53.34289031698,-2.10487288094
0600MA0454,CHEPAGP,Trafalgar Avenue,53.34436539960,-2.10379505685
0600MA0454A,CHETADM,Trafalgar Avenue,53.34439262703,-2.10349471946
0600MA0455,CHEPAGT,Coppice Road,53.34406310221,-2.09991914337
0600MA0456,CHEPAGW,Coppice Road,53.34396408850,-2.10008413165
0600MA0457,CHEPAJA,Coppice Road,53.34438902980,-2.09709611313
0600MA0458,CHEPAJD,Coppice Road,53.34429031403,-2.09690062635
0600MA0459,CHEPAJG,Green Lane,53.34406041440,-2.09210870268
0600MA0460,CHEPAJM,Green Lane,53.34393460845,-2.09206337073
0600MA0461,CHEPAJP,Shrigley Road North,53.34420725799,-2.08811366892
0600MA0462,CHEPAJT,Shrigley Road North,53.34405442902,-2.08814339304
0600MA0463,CHEPAJW,Boar's Head,53.34696868457,-2.08549068906
0600MA0464,CHEPAMA,Boar's Head,53.34697748944,-2.08574606525
0600MA0465,CHEPAMD,Carleton Road,53.35067117179,-2.08663982072
0600MA0465A,CHEPWPD,Carleton Road,53.35053622204,-2.08680479202
0600MA0466,CHEGAGJ,Bus Shelter,53.35261037472,-2.08979860960
0600MA0470,CHEPAMG,Towers Road,53.36316836250,-2.11494565667
0600MA0471,CHEPAMJ,Anglesey Drive,53.36054237963,-2.11629090166
0600MA0472,CHEPAMP,Anglesey Drive,53.36049714282,-2.11659129519
0600MA0473,CHEPAMT,Vicarage Lane,53.35387033046,-2.11881167423
0600MA0474,CHEPAMW,Vicarage Lane,53.35386107176,-2.11908207169
0600MA0475,CHEPAPA,Sports Ground,53.35161277258,-2.12021751899
0600MA0476,CHEPAPD,Sports Ground,53.35147757893,-2.12057768204
0600MA0477,CHEGAGP,St George's Church,53.34987652154,-2.12163972448
0600MA0478,CHEGAGT,St George's Church,53.34843751219,-2.12244678639
0600MA0480,CHEPAPJ,Johnson Cleaners Ltd,53.34605408461,-2.12383687461
0600MA0483,CHEPAPM,Copperfield Road,53.34468972140,-2.12198541719
0600MA0484,CHEPAPT,Copperfield Road,53.34476264170,-2.12099428487
0600MA0485,CHEPAPW,Yewtree Lane,53.34324833654,-2.11619867776
0600MA0486,CHEPATA,Yewtree Lane,53.34319472679,-2.11586809686
0600MA0487,CHEPATD,Vernon Road,53.34199203438,-2.11401745020
0600MA0489,CHEPATJ,Moggie Lane,53.33957254154,-2.10596107070
0600MA0489A,CHEPWMW,Moggie Lane,53.33951914295,-2.10536019914
0600MA0490,CHEPATM,Waterloo Road,53.34553605611,-2.10131951047
0600MA0490A,CHEPWMT,Waterloo Road,53.34568900325,-2.10115464697
0600MA0491,CHEPATP,Hepley Road,53.34677499037,-2.10306489375
0600MA0492,CHEPATW,Hepley Road,53.34699070430,-2.10308043640
0600MA0493,CHEGAJD,Post Office,53.34772471617,-2.10655214443
0600MA0494,CHEGAJG,Post Office,53.34758921232,-2.10730287114
0600MA0495,CHEPAWA,School Lane,53.34771002821,-2.11274090419
0600MA0496,CHEPAWD,School Lane,53.34786273512,-2.11284645783
0600MA0497,CHEPAWG,Clumber Road,53.34804903405,-2.11541562237
0600MA0498,CHEPAWJ,Clumber Road,53.34820182598,-2.11543105749
0600MA0499,CHEGAJM,St George's Church,53.34896015775,-2.12117143486
0600MA0500,CHEPAWM,St George's Church,53.34913817534,-2.12288443215
0600MA0501,CHEPAWP,Hilton Grove,53.34944839473,-2.12706143216
0600MA0502,CHEPAWT,Clifford Road,53.34959897157,-2.12913491924
0600MA0503,CHEPDAD,Clifford Road,53.34976939639,-2.12946592102
0600MA0506,CHEPDAM,Hilton Grove,53.34960097657,-2.12727219505
0600MA0507,CHEPDAP,Hazelbadge Road,53.34985709410,-2.13146412771
0600MA0508,CHEPDAT,Hazelbadge Road,53.34972238098,-2.13135855801
0600MA0509,CHEGAJP,Railway Station,53.35001293580,-2.13675240988
0600MA0510,CHEGAJT,Railway Station,53.35006771020,-2.13601649851
0600MA0511,CHEPDAW,Deva Close,53.35062915075,-2.14019451113
0600MA0512,CHEPDGA,Distaff Road,53.35059238111,-2.14088541923
0600MA0513,CHEPDGD,Merton Road,53.35082411912,-2.14253865429
0600MA0514,CHEPDGJ,Tern Drive,53.35093876406,-2.14437178136
0600MA0515,CHEPDGM,Woodford Road,53.35053122897,-2.14686411178
0600MA0516,CHEPDGP,Highfield Road,53.34983754443,-2.14812358021
0600MA0526,CHEGAMD,Spath Lane,53.35312214734,-2.21623545862
0600MA0527,CHEGAMG,Spath Lane,53.35308570227,-2.21650569269
0600MA0528,CHEGAMJ,Paddock South,53.34977145052,-2.21509182481
0600MA0529,CHEGAMP,Paddock North,53.35001357224,-2.21540851088
0600MA0530,CHEGAMT,Clinic,53.34794682493,-2.21505258689
0600MA0531,CHEGAMW,Clinic,53.34772162253,-2.21532183702
0600MA0532,CHEGAPA,The Green,53.34560834700,-2.21082000737
0600MA0533,CHEGAPD,The Green,53.34514136575,-2.21057737350
0600MA0534,CHEPDJP,Hallwood Road,53.34228740168,-2.20805504477
0600MA0535,CHEPDJT,Hallwood Road,53.34207225197,-2.20772356963
0600MA0536,CHEPDJW,Oaklands Close,53.33790754227,-2.20423416630
0600MA0537,CHEPDMA,Oaklands Close,53.33782631021,-2.20442901039
0600MA0538,CHEPDMD,Handforth Road,53.33512338596,-2.20286932411
0600MA0539,CHEPDMG,Handforth Road,53.33529329911,-2.20338070963
0600MA0540,CHEPDMJ,Lincoln Road,53.33519287937,-2.20946210523
0600MA0541,CHEPDMP,Pinewood Road,53.33538951831,-2.21009378560
0600MA0542,CHEPDMT,Blue Bell Garage,53.33806623831,-2.22108510309
0600MA0543,CHEPDMW,Blue Bell Garage,53.33847884867,-2.22155280156
0600MA0544,CHEPDPA,Summerfields,53.33787531211,-2.21737468868
0600MA0545,CHEPDPD,Summerfields,53.33778589158,-2.21711892939
0600MA0546,CHEPDPG,Benson Walk,53.34013793913,-2.21379673599
0600MA0547,CHEPDPJ,Benson Walk,53.34012044656,-2.21352631170
0600MA0548,CHEPDPM,Peckmill Close,53.34000840723,-2.21082239151
0600MA0549,CHEPDPT,Peckmill Close,53.33983749124,-2.21089664056
0600MA0550,CHEGAPG,Malpas Close,53.33765522546,-2.20977454146
0600MA0551,CHEGAPJ,Malpas Close,53.33741189860,-2.21013377206
0600MA0552,CHEPDPW,Wheelock Close,53.33598851040,-2.21192883767
0600MA0553,CHEPDTA,Wheelock Close,53.33607804902,-2.21212450677
0600MA0562,CHEPDWA,Styal Road,53.33320022222,-2.22753192767
0600MA0563,CHEPDWD,Styal Road,53.33287669042,-2.22750017172
0600MA0564,CHEPDWG,Bridgefield Avenue,53.33606301293,-2.22521950168
0600MA0565,CHEPDWJ,Bridgefield Avenue,53.33624369164,-2.22473989949
0600MA0566,CHEPDWM,Highfield Crescent,53.33835863375,-2.22335434849
0600MA0567,CHEPDWP,Highfield Crescent,53.33829619181,-2.22309871472
0600MA0584,CHEPGDP,Mill Street,53.33011558571,-2.22832631615
0600MA0584A,CHETDAD,Bollin Valley Link,53.33012512048,-2.22804107833
0600MA0585,CHEGATJ,Railway Station,53.32647787185,-2.22691057830
0600MA0587,CHEGATP,Bank Square,53.32675777839,-2.23093582167
0600MA0588,CHEGATW,Bank Square,53.32690217734,-2.23063632091
0600MA0590,CHEPGDT,Alderley Road,53.32589850675,-2.23367868675
0600MA0591,CHEPGDW,Alderley Road,53.32602475898,-2.23346918468
0600MA0592,CHEPGJA,Fire Station,53.32666973449,-2.23911796917
0600MA0593,CHEPGJD,Park Road,53.32684426711,-2.24171637688
0600MA0594,CHEPGJG,Park Road,53.32704049127,-2.24246819314
0600MA0595,CHEPGJM,Buckingham Road,53.32694291084,-2.24622116102
0600MA0596,CHEPGJP,Gorsey Road,53.32864453188,-2.24921889093
0600MA0597,CHEPGJT,Sandy Lane,53.33179958219,-2.25347175263
0600MA0598,CHEPGJW,Sandy Lane,53.33208737609,-2.25339838092
0600MA0599,CHEPGMA,Moat House,53.34241761128,-2.27664983445
0600MA0600,CHEPGMD,Moat House,53.34244898762,-2.27474255567
0600MA0601,CHEPGMG,Dooley's Lane,53.34038064609,-2.26724987901
0600MA0602,CHEPGMJ,Cranlea,53.33778860158,-2.26872043137
0600MA0603,CHEGAWA,Congregational Church,53.33515433611,-2.26496463059
0600MA0604,CHEPGMP,Moss View,53.33464681826,-2.25866944398
0600MA0605,CHEPGMT,Moss View,53.33430616443,-2.25824691400
0600MA0606,CHEPGMW,Stuart House,53.32457559110,-2.23448216651
0600MA0606A,CHEPWMG,The Coach & Four,53.32348666959,-2.23513675658
0600MA0607,CHEPGPA,Cheshire East Offices,53.32179004157,-2.23853520630
0600MA0608,CHEPGPD,Health Centre,53.32261798292,-2.23804441376
0600MA0609,CHEPGPG,Birch Avenue,53.32244918113,-2.24152637518
0600MA0610,CHEPGPJ,Birch Avenue,53.32225033566,-2.24206569898
0600MA0611,CHEPGPM,Shops,53.32199205614,-2.24529189078
0600MA0612,CHEPGPT,Shops,53.32186646295,-2.24517107136
0600MA0613,CHEPGPW,Eden Close,53.31989422568,-2.25126948278
0600MA0614,CHEPGTA,Eden Close,53.31946156936,-2.25183737445
0600MA0615,CHEPGTD,Riflemans Arms PH,53.31880884334,-2.25444548282
0600MA0616,CHEPGTG,Riflemans Arms PH,53.31857395300,-2.25499949698
0600MA0617,CHEPGTJ,Cumber Lane,53.31821266439,-2.25996599122
0600MA0618,CHEPGTM,Cumber Lane,53.31789711357,-2.26039938841
0600MA0619,CHEPGTP,Cumber Drive,53.31593282700,-2.25845110161
0600MA0620,CHEPGTW,Cumber Drive,53.31597017922,-2.25780588713
0600MA0621,CHEGAWD,Brook Lane Corner,53.31074562334,-2.25460760463
0600MA0622,CHEGAWG,Brook Lane Corner,53.31077207589,-2.25484789683
0600MA0623,CHEPGWA,Shops,53.31298656756,-2.25331515267
0600MA0625,CHEPGWG,Harden Park,53.30940652689,-2.23707036233
0600MA0626,CHEPGWJ,Harden Park,53.31012654084,-2.23660910179
0600MA0627,CHEPGWM,Fulshaw Park South,53.31472688883,-2.23755016676
0600MA0628,CHEPGWP,Fulshaw Park South,53.31558164356,-2.23713463498
0600MA0629,CHEPGWT,King's Arms Hotel,53.31984122512,-2.23766866676
0600MA0630,CHEPJAD,King's Arms Hotel,53.32008451567,-2.23736978638
0600MA0639,CHEPJDJ,Knutsford Road,53.31351734140,-2.25310816689
0600MA0640,CHEPJDM,Cumber Lane,53.31504422238,-2.25367257552
0600MA0641,CHEPJDP,Cumber Lane,53.31502573379,-2.25391262431
0600MA1047,CHEWJMP,Council Offices,53.29813806558,-2.10212225433
0600MA17170,CHETDTW,Alderley House,53.27177032580,-2.23267833924
0600MA17172,CHETDTD,Mereside,53.27587420052,-2.23010631003
0600MA17352,CHETGJW,Mill Road,53.32882756294,-2.22970078765
0600MA17428,CHETGWG,Autumn Avenue,53.30547175578,-2.35548041716
0600MA17439,CHETGTJ,Shopping Centre,53.34935083332,-2.20380822185
0600MA19010,CHETPWA,Congregational Church,53.33491979859,-2.26533859802
0600MA19014,CHETPTG,Valley Way,53.29375421132,-2.37478128568
0600MA19015,CHETWDG,Highland Way,53.29174412552,-2.37369855332
0600MA19016,CHETWDM,Manor Park School,53.30424506718,-2.35988203526
0600MA19017,CHETWGA,Beech Drive,53.30354201256,-2.36052137453
0600MA19018,CHETWDW,Ryecroft Lane,53.31370380004,-2.34378142186
0600MA19019,CHETWGJ,Bird in Hand,53.31168760075,-2.29804852210
0600MA19020,CHETWDT,Woodend Barn,53.36988858432,-2.03401679818
0600MA19021,CHETWGD,Woodend Barn,53.36989742510,-2.03452779629
0600MA19022,CHETWDJ,Woodend Farm,53.37106526471,-2.03678318163
0600MA19023,CHETWGM,Woodend Farm,53.37111899874,-2.03741447051
0600MA19024,CHETWGP,Lindow End Farm,53.30440199397,-2.27767935627
0600MA19030,CHETWJD,Jackson Close,53.29302620726,-2.09889956920
0600MA19047,CHEWGAD,Beswicks Lane,53.30736769543,-2.26611303599
0600MA19048,CHEWGAG,Beswicks Lane,53.30726908884,-2.26599236473
0600MA19050,CHEWGAM,Foden Lane,53.30488789857,-2.27357076899
0600MA19051,CHEWGAP,Prospect House Hotel,53.30514208886,-2.27247692453
0600MA19064,CHEWJGT,Railway Station,53.30164054459,-2.37088898761
0600MA19067,CHEWJTD,Frontline House,53.35043854427,-2.20895105325
0600MA19070,CHEWJWM,Cotton Tree,53.29855924936,-2.09271569212
0600MA19072,CHEWMAP,Gorsey Road,53.32847478378,-2.24872241800
0600MA19083,CHEWMWG,Whipping Stocks Inn,53.26871629392,-2.34952262273
0600MA19130,cheadmdp,Whirley Lane,53.26076443364,-2.20532011918
0600MA19131,cheadmdw,Clay Lane,53.30795873300,-2.29017363697
0600MA19136,cheadpwt,Nether Alderley Mill,53.28254056332,-2.23638154156
0600MA19137,cheadtag,Mereside,53.27580223321,-2.23013591541
0600MA19138,cheadtaj,Alderley House,53.27186984516,-2.23234899502
0600MA19141,cheadtjd,St Johns Wood School,53.30456685076,-2.35145121333
0600MA19142,cheadtgp,Council Depot,53.31024390809,-2.34969687851
0600MA19144,cheadwda,Mill Hill Avenue,53.36263247416,-2.12914434830
0600MA19145,cheadwdg,Woodford Road Garage,53.35828327384,-2.13605773112
0600MA19147,cheadwdm,Meadway,53.35307910375,-2.14350767839
0600MA19148,cheadwdp,Woodford Road,53.35221447053,-2.14493194837
0600MA19150,cheadwdw,Vernon Junior School,53.34626669606,-2.11805446663
0600MA19151,cheadwjg,Tern Drive,53.35107404762,-2.14399667580
0600MA19152,cheadwgd,Clumber Road,53.34461129150,-2.11955191022
0600MA19153,cheadwgj,Queensway,53.34636910723,-2.12343222556
0600MA19158,cheadwta,Cranlea,53.33774318473,-2.26893039604
0600MA19159,cheadwtp,Dooley's Lane,53.34040710653,-2.26747532695
0600MA19166,cheagagp,Water Lane,53.33359419006,-2.25493899558
0600MA19167,cheagadw,Mobberley Road,53.33415141701,-2.25497235477
0600MA19168,cheagagm,Waters,53.33565998433,-2.25568716676
0600MA19172,cheagjdp,Clay Lane,53.25938133041,-2.31912077692
0600MA19173,cheagjdm,Clay Lane,53.25929987042,-2.31933003589
0600MA19190,cheagdwt,Falcon Bearer PH,53.30657799650,-2.34918667890
0600MA19200,cheagmgt,Waitrose,53.34846987125,-2.11708416123
0600MA19201,cheagmjm,Waitrose,53.34837081911,-2.11726414824
0600MA19202,cheagmjp,Vernon Road,53.34203717868,-2.11380729989
0600MA5109,cheadpap,Vernon Infant School,53.34748026366,-2.11795267758
0600MA5302,CHEWDWT,High School,53.34392621619,-2.11231033928
0600MA6001,CHEPJWM,The Towers,53.25516910546,-2.12393341865
0600MA6002,CHEGDMD,King Edward Street,53.26128606251,-2.12808866975
0600MA6004,CHEPJWP,General Hospital,53.26332964248,-2.14121258722
0600MA6005,CHEPJWT,Pavilion Way,53.26352504998,-2.15046319761
0600MA6006,CHEPMAD,Fallibroome Close,53.26255128544,-2.15964956429
0600MA6006A,CHEPTAJ,Fallibroome Close,53.26281207920,-2.15956058758
0600MA6008,CHEGDMG,Shops,53.25963695714,-2.16110776126
0600MA6009,CHEGDMJ,Shops,53.26012251098,-2.16098966365
0600MA6012,CHEGDMW,Dixon Drive,53.27080731357,-2.28306934101
0600MA6013,CHEPMAG,The Dog Inn,53.25849598046,-2.31059978654
0600MA6014,CHEPMAJ,The Dog Inn,53.25839757426,-2.31041919189
0600MA6015,CHEGDPA,Ye Olde Parkgate Inn,53.26153972369,-2.32206014075
0600MA6016,CHEPMAM,Grotto Lane,53.26308042174,-2.33058703367
0600MA6018,CHEGDPD,Whipping Stocks Inn,53.26880578391,-2.34965829688
0600MA6019,CHEPMAT,St John's Avenue,53.30148907193,-2.37619951853
0600MA6021,CHEPTWM,Bus Station,53.30249852858,-2.37533807363
0600MA6022,CHEPTWP,Bus Station,53.30241706489,-2.37551742525
0600MA6029,CHEPMDM,The Whitfields,53.26313606274,-2.14521473326
0600MA6034,CHEGDPT,Bridge Street,53.26090723830,-2.12928680933
0600MA6064,CHEGJGJ,Fingerpost Farm,53.27908626175,-2.36259499115
0600MA6065,CHEGJGP,Fingerpost Farm,53.27920370605,-2.36240101969
0600MA6095,CHEPMPM,Dorchester Way,53.27990280020,-2.12713960132
0600MA6096,CHEPMPT,Dorchester Way,53.28023578263,-2.12676564946
0600MA6097,CHEPMPW,Tytherington Business Park,53.28399542424,-2.12454194753
0600MA6098,CHEPMTA,Tytherington Business Park,53.28457997264,-2.12427366504
0600MA6105,CHEPMWA,Railway Station,53.25925090132,-2.12307580268
0600MA6107,CHEPMWD,Railway Station,53.25930430552,-2.12358562857
0600MA6108,CHEPTAM,Home Farm Avenue,53.26344623523,-2.15582998997
0600MA6109,CHEPTAP,Home Farm Avenue,53.26357119243,-2.15650507861
0600MA6124,CHEGPAP,General Hospital,53.26292658388,-2.13999693497
0600MA6125,CHEPTAT,Offices,53.35796628380,-2.04431434607
0600MA6138,CHEGPAW,Seven Sisters Lane,53.28739646638,-2.33651993913
0600MA6140,CHEPTJD,Carnoustie Drive,53.28113127426,-2.12990288635
0600MA6141,CHEPTJG,Carnoustie Drive,53.28049518753,-2.12795124287
0600MA6142,CHEPTJM,Sandwich Drive,53.27628854443,-2.13597667322
0600MA6143,CHEPTJP,Sandwich Drive,53.27595626989,-2.13570568532
0600MA6144,CHEPTJT,Freshfield Drive,53.27321805789,-2.13272794143
0600MA6146,CHEPTMA,Whirley Lane,53.26089027557,-2.20532072264
0600MA6149,CHEPWGM,Bus Station,53.25812527596,-2.12502125787
0600MA6152,CHEPWGA,Bus Station,53.25797237267,-2.12511075045
0600MA6166,CHEGPMA,Waggon & Horses,53.29334011010,-2.10994196694
0600MA6167,CHEPWTW,Micawber Road,53.34014836885,-2.11504881115
0600MA6168,CHETADA,Micawber Road,53.33999554764,-2.11506341755
0600MA6169,CHEPWTM,Graymarsh Drive,53.34005423982,-2.11935891306
0600MA6170,CHEPWTP,Graymarsh Drive,53.33999999150,-2.11967415275
0600MA6171,CHEPWMJ,Weller Avenue,53.34165990796,-2.12260755936
0600MA6172,CHEPWMP,Weller Avenue,53.34175907629,-2.12232247846
0600MA6196,CHETAPD,Tytherington Park Road,53.27355275713,-2.12236719670
0600MA6197,CHETAPG,Tytherington Park Road,53.27294135389,-2.12253039347
0600MA6198,CHETAPJ,Manchester Road,53.27141755798,-2.12700941187
0600MA6199,CHETAPM,Manchester Road,53.27124799875,-2.12585432884
0600MA6200,CHETAPT,Leisure Centre,53.28914413447,-2.11750657404
0600MA6201,CHETAPW,Leisure Centre,53.28903606246,-2.11771628755
0600MA6203,CHETATJ,East Avenue,53.29080308236,-2.11230565637
0600MA6204,CHETATG,East Avenue,53.29066813847,-2.11242531234
0600MA6205,CHETATM,Bull's Head,53.29047429512,-2.09782857019
0600MAD5047,CHEWDGW,Mill Hill Avenue,53.36271314322,-2.12935496552
0600MAE5104,cheadpjt,Oakenclough Childrens Centre,53.33918379983,-2.21454287701
0600MAE5108,cheadpjp,Vernon Junior School,53.34636534729,-2.11828005294
0600MAM1309,CHEWDGT,Woodford Road Garage,53.35837295373,-2.13623831855
069000010180,wrgmdat,Academy Way Alighting Only,53.38747972633,-2.59213068910
069000010182,wrgmdga,Academy Way,53.38782544838,-2.59129348996
069000010220,wrgmdma,Hays House,53.38861153446,-2.59769467523
069000010221,wrgmdtj,White Hart,53.38888651838,-2.59663096784
069000010222,wrgmdtm,White Hart,53.38884936317,-2.59687102498
069000010223,wrgmdmd,Legh Street,53.38942264484,-2.59726999055
069000010240,wrgmdmj,Rylands Street,53.38782878798,-2.59424053211
069000010250,wrgmdmp,Rylands Street,53.38794061011,-2.59344519618
069000010265,wrgmdgt,Bridge Street,53.38666277923,-2.59192388938
069000010280,wrgmdpw,Town Hall,53.38856351027,-2.60009975534
069000010310,wrgmdgw,Central Station,53.39280137057,-2.59387373554
069000010311,wrgmdja,Central Station,53.39303468661,-2.59395217239
069000010312,wrgmdtw,WRLFC Rugby Ground,53.39560415506,-2.59421353948
069000010340,wrgagwa,Owen Street,53.39854228260,-2.59445000059
069000010341,wrgagwj,Tesco,53.39695214212,-2.59427744189
069000010350,wrgagpw,Ireland Street,53.40111264648,-2.59453096198
069000010360,wrgdjgj,Alder Lane,53.40461791781,-2.59459489249
069000010370,wrgdjpt,Winwick Road College,53.40697189098,-2.59480823988
069000010380,wrgdjga,Alban Retail Park,53.40889719423,-2.59626420636
069000010390,wrgdatp,Sandy Lane West,53.41336474014,-2.59802676884
069000010400,wrgdapw,Mill Lane,53.41897947571,-2.59866230689
069000010410,wrgmamt,B&Q,53.42426655083,-2.59831525236
069000010420,wrgmapd,St Oswald Church,53.43149639805,-2.59951555853
069000010421,wrgmamj,Old School House Lane,53.43386489120,-2.60219804741
069000010422,wrgawgj,Cop Holt Farm,53.43838682199,-2.60739526642
069000010740,wrgmamd,Ilex Avenue,53.43156638810,-2.59269838283
069000010750,wrgadwp,Falcondale Road,53.43185858280,-2.58996312630
069000010760,wrgdmja,Delph Lane,53.43360532660,-2.57833720388
069000010780,wrgdwad,Southworth Farm,53.43613971047,-2.56906904391
069000010800,wrgjmaw,The Horseshoe,53.43789396420,-2.55539395464
069000010801,wrgjgwg,The Horseshoe,53.43715645179,-2.55548970504
069000010802,wrgdmgt,Smithy Lane,53.43471302439,-2.55517183469
069000010803,wrgjmap,Pasture Drive,53.43448060142,-2.55101441767
069000010804,wrgjgta,Eaves Brow Road,53.43386908558,-2.54716826804
069000010805,wrgjgwp,Lady Lane,53.43588657096,-2.54431914580
069000010806,wrgdjat,Brook House Farm,53.44169464175,-2.54202983026
069000010807,wrgdjdp,Mustard Lane,53.44435938390,-2.54310260186
069000010810,wrgjgtm,General Elliot,53.44018372330,-2.55202159220
069000010820,wrgdjda,Hodgekinson Farm,53.44343994901,-2.54760745595
069000010830,wrgdjdm,Lady Lane,53.44495396656,-2.54280907252
069000010850,wrgjajm,Glaziers Lane,53.44879035700,-2.53120375424
069000010860,wrgjajt,Linear Park,53.45119401557,-2.52834262117
069000010910,wrgapdm,CPS Centre,53.45270225292,-2.52057608041
069000010920,wrgapgd,Library,53.45248887763,-2.51796835492
069000010930,wrgapgj,Culcheth Hall Drive,53.45314051252,-2.51485913757
069000010940,wrgapgp,Holcroft Lane,53.45598239669,-2.50609866580
069000010950,wrgjmpm,Mee Brow Playground,53.45808718054,-2.49934650940
069000010960,wrgjmjt,Fowley Common Lane,53.45982328060,-2.49471302571
069000010970,wrgjmpa,George & Dragon,53.46375744663,-2.49322241772
069000010975,wrgjmgm,Chat Moss Hotel,53.46641712251,-2.49344908806
069000010980,wrgjmgw,Coronation Avenue,53.46956740386,-2.49458535345
069000010990,wrgjmpg,Hurst Mill Lane,53.47426193799,-2.49614658095
069000011000,wrgjmgd,Bents Garden Centre,53.47600985666,-2.49731205557
069000011010,wrgjmjm,Foresters Arms,53.47821621908,-2.49846793491
069000011020,wrgdtda,Risley HMP,53.43966524444,-2.52548981435
069000011290,wrgawtj,Orchard Street,53.39001319656,-2.58511376327
069000011300,wrgdadt,Sainsburys,53.39095558276,-2.58172837856
069000011310,wrgdaga,St Elphin's Park,53.39334840344,-2.57950537586
069000011320,wrgdadg,Helsby Street,53.39542284249,-2.57619505290
069000011322,wrgdtdp,Hamsterly Close,53.43080420581,-2.50211192591
069000011323,wrgdtdt,Inglewood Close,53.43034177496,-2.49878028488
069000011324,wrgdtgw,Ringwood Close,53.42814242775,-2.50024446025
069000011327,wrgdtjm,The Poacher,53.42798739316,-2.50504352395
069000011330,wrgamgp,Cemetery,53.39712636661,-2.57336067213
069000011331,wrgmjgp,Golf Club,53.41968114913,-2.54408197173
069000011332,wrgmjmw,Redvales Court,53.42270458358,-2.54336819121
069000011340,wrgajwp,Briarwood Avenue,53.39844592137,-2.56997950867
069000011350,wrgajwj,Beresford Street,53.39807661236,-2.57201991476
069000011360,wrgamdj,Padgate Stores,53.39922284623,-2.56916271242
069000011530,wrgmapj,Post Office,53.43101683188,-2.59655882379
069000011600,wrgamam,Mason Avenue,53.40160380003,-2.56749492055
069000011610,wrgdptw,St Oswalds Church,53.40291242335,-2.56448910271
069000011620,wrgdptj,Methodist Church,53.40461099552,-2.56073615848
069000011716,wrgmjmd,Locking Stumps Lane,53.41631657233,-2.54470101623
069000011820,wrgdpwd,Stocks Pub,53.40629077182,-2.55713309258
069000011850,wrgatpd,Freshfields Drive,53.41048512888,-2.54422029884
069000011851,wrgatmt,Carpenter Grove,53.40898175719,-2.55059442585
069000011860,wrgmjgw,Blackburne Close,53.41126586676,-2.54054450912
069000011870,wrgjdwm,Roberts Fold,53.42032077051,-2.53179664979
069000011890,wrgjgag,Turf & Feather,53.42093366373,-2.53544575391
069000011891,wrgjdwa,Ordnance Avenue,53.42124935192,-2.52303558863
069000011900,wrgjdmw,Copperfield Close,53.42589153009,-2.53630568211
069000011910,wrgmjpd,Strawberry Close,53.42154821113,-2.53870374840
069000011912,wrgjdtj,Kelvin Close,53.42942567995,-2.53192539295
069000011920,wrgjdma,Warrington Road,53.42983739502,-2.52827327193
069000011970,wrgapjd,Newchurch Lane,53.44910234520,-2.52160110736
069000011975,wrgdtat,Merefield,53.43742915839,-2.52705784691
069000011976,wrgdtdj,Noggin Inn,53.43221677784,-2.52682776272
069000012280,wrgjdjp,Birchwood Centre,53.41343322220,-2.53028144211
069000012295,wrgjdpm,Foxwood School,53.41812445712,-2.52436643926
069000012296,wrgjdjw,Library,53.41632149611,-2.52759411875
069000012300,wrgjdjm,Birchwood Centre,53.41348775250,-2.53014671848
069000012301,wrgjdmd,Birchwood Station,53.41270663877,-2.52587942999
069000012320,wrgjgam,Whinchat Drive,53.41674571169,-2.51899315129
069000012326,wrgdtdm,Arden Close,53.43002961525,-2.50461622892
069000012330,wrgjdtp,Nelsons Quarterdeck,53.41799032969,-2.51595391928
069000012340,wrgdtga,Jay Close,53.41981566591,-2.51162746762
069000012350,wrgdtgm,Keyes Close,53.42196595672,-2.51533997523
069000012352,wrgjdmj,Fire Station,53.42001983299,-2.52464556827
069000012360,wrgdtjd,Country Park,53.42477297900,-2.50845155124
069000012370,wrgdtgt,Birchwood Forest Park,53.42623386309,-2.50734030317
069000012440,wrgamgm,Cemetery,53.39662931015,-2.57204561427
069000012460,wrgajwt,Bruche Bridge,53.39775956489,-2.56308239164
069000012470,wrgamag,Greenway,53.39757004091,-2.55750038181
069000012480,wrgdpma,Dog & Partridge,53.39761309034,-2.54820677367
069000012490,wrgmawp,Holes Lane,53.39868780642,-2.54316732563
069000012500,wrgmawd,Greymist Avenue,53.39857773140,-2.53969181178
069000012510,wrgmatg,Cliftonville Road,53.39840192517,-2.53481682763
069000012520,wrgmdad,Rope & Anchor,53.39835068561,-2.53018406284
069000012525,wrgdmgj,Monmouth Close,53.39865216177,-2.52705960411
069000012530,wrgdmdg,Gig Lane,53.39906978357,-2.52202649933
069000012540,wrgdmga,Riversdale,53.39862418075,-2.51493746501
069000012550,wrgdmdt,M6 Bridge,53.39892145180,-2.50638355540
069000012560,wrgdmaw,Brook Lane,53.40022866727,-2.50121028316
069000012670,wrgajwd,Bennett Avenue,53.39597453487,-2.56609660407
069000012680,wrgamdw,Princess Avenue,53.39315317037,-2.56396892999
069000012710,wrgawpw,Bridgewater Avenue,53.38689980145,-2.56528452974
069000012725,wrgamdp,Peacock Avenue,53.39662295342,-2.56772940049
069000012810,wrgdgjd,Raddon Court,53.38161027116,-2.56805576622
069000012820,wrgdgam,Cheshire Cheese,53.38096205458,-2.56448425393
069000012830,wrgdgjw,Kingsway South,53.38120016417,-2.56164610414
069000012850,wrgmgda,Powell Street,53.38036071989,-2.56047750911
069000012860,wrgdgat,Christ Church,53.38028487593,-2.57078916085
069000012870,wrgdgja,Pearson Avenue,53.37759978738,-2.57213619099
069000012880,wrgdgda,Clarke Avenue,53.37744456662,-2.57450916882
069000012890,wrgdgjt,Secker Avenue,53.37721564913,-2.57724189990
069000012900,wrgjapd,Greenalls Distillery,53.37742326173,-2.58261113895
069000012910,wrgdagd,St James' Court,53.38238921170,-2.59090242969
069000012920,wrgjamp,Central Avenue,53.38084140623,-2.58943780167
069000012930,wrgjamj,Causeway Hotel,53.37923547551,-2.58699535639
069000012940,wrgjapm,Loushers Lane,53.37694108764,-2.58379207140
069000012950,wrgjatd,Morrisons,53.37475246679,-2.58284523305
069000012960,wrgjwgw,St Thomas' Church,53.37253789890,-2.58168771471
069000012970,wrgjwjw,Mullberry Tree Pub,53.37106501670,-2.58142716316
069000012985,wrgjwjm,Sandy Lane,53.37051949683,-2.57528766034
069000012990,wrgdjtp,Limetree Avenue,53.37182500585,-2.56921809209
069000013000,wrgdjwg,Cantilever,53.37379828275,-2.56822232329
069000013005,wrgdmam,Hill Top Road,53.37601258284,-2.56187844983
069000013007,wrgmgdp,Pilling Gardens,53.37733139159,-2.55858878313
069000013020,wrgmgdj,Pilling Gardens,53.37758768697,-2.55567591912
069000013030,wrgmdwp,Albert Road,53.37764101019,-2.55193362693
069000013040,wrgjmwj,Dog & Dart,53.37739298423,-2.54330206024
069000013045,wrgjpad,Ollerton Close,53.37963242129,-2.54499921547
069000013050,wrgjmwp,Latchford Locks,53.38091704421,-2.54516595852
069000013060,wrgjpaj,Richmond Avenue,53.38221177165,-2.54113844515
069000013070,wrgjmwd,Buntingford Road,53.38244318502,-2.53766858305
069000013075,wrgdwtw,Stanton Road,53.38264278082,-2.53325115467
069000013090,wrgdwmw,London Bridge,53.36694194488,-2.57901155173
069000013095,wrgdwmp,Waverley Avenue,53.36643450212,-2.57799778249
069000013100,wrgajtd,Southway Avenue,53.36510848479,-2.57524478991
069000013101,wrgajtm,St Monicas Close,53.36478225136,-2.57205455033
069000013102,wrgajtj,Wood Lane,53.36541430303,-2.57146190922
069000013120,wrgdwmg,Bridge Lane Shops,53.36798412462,-2.57166163060
069000013130,wrgdjwm,Dale Lane,53.36862825339,-2.57042285787
069000013250,wrgdwpa,Alderley Road,53.38263472601,-2.53102604888
069000013260,wrgdwtj,Pickering Arms,53.38333127823,-2.52596824139
069000013270,wrgdwpm,Bell Lane,53.38260577258,-2.52128378356
069000013280,wrgdwtd,Laskey Lane,53.38384869729,-2.51657822236
069000013320,wrgawjd,Thelwall Bridge,53.38270372737,-2.51110707663
069000013330,wrgdwja,Statham Lodge,53.38405711057,-2.49929129819
069000013380,wrgdwap,Barsbank Lane,53.37935448761,-2.49099837469
069000013385,wrgdwdg,Daisy Bank Road,53.38066231431,-2.49209581001
069000013390,wrgjtjd,Welfare Centre,53.37932722485,-2.48447390236
069000013400,wrgamjd,Lymm Church,53.37733568333,-2.47680004144
069000013405,wrgjtdt,Brookfield Road,53.38041608625,-2.48417057494
069000013410,wrgamgw,Grammar School Road,53.37641147911,-2.46958958286
069000013415,wrgdwma,Whitbarrow Road,53.38413206859,-2.49424064350
069000013420,wrgamjw,Woodlands Avenue,53.37556010256,-2.46664911215
069000013425,wrgdpjg,Lymm High School,53.37826400930,-2.46013966560
069000013460,wrgamjp,Lymm Church,53.37812117784,-2.47817674947
069000013470,wrgjtgd,Lymm Cross,53.38081174181,-2.47744021794
069000013480,wrgjtja,Reddish Lane,53.38384116195,-2.47512879005
069000013490,wrgdtjt,Reddish Crescent,53.38571256884,-2.46785772865
069000013500,wrgdtmg,Whitefield Grove,53.38752297604,-2.46229941971
069000013510,wrgdtma,Sandy Lane,53.38860500366,-2.45909347191
069000013520,wrgawdt,Rushes Meadow,53.39078786105,-2.45239559370
069000013530,wrgawga,Green Dragon,53.39319158104,-2.44902262504
069000019000,wrgdmdp,Holly Bush Lane,53.40078600853,-2.49690030064
069000019010,wrgdgag,Woodside Farm,53.40205462398,-2.48789070703
069000019020,wrgdawt,Rixton Old Farm,53.40265522275,-2.48165563156
069000019030,wrgdawg,Moat Lane,53.40505739328,-2.47662877073
069000019040,wrgdawm,Rixton New Hall,53.40823780113,-2.47022601965
069000019060,wrgjwgm,Warburton Bridge Road,53.40957418195,-2.46638968789
069000019070,wrgawmg,Ye Olde Red Lion,53.41430494920,-2.45637640760
069000019080,wrgawma,Black Swan,53.41656324136,-2.45581381553
069000019085,wrgawmp,Glazebrook Lane,53.41785698586,-2.45361586850
069000020268,wrgawgd,Cop Holt Farm,53.43798595886,-2.60668203738
069000020269,wrgmamg,Old School House Lane,53.43364292246,-2.60165304105
069000020270,wrgmamw,St Oswald Church,53.43039856980,-2.59796493028
069000020590,wrgjmjg,Foresters Arms,53.47786781990,-2.49795155661
069000020600,wrgjmga,Bents Garden Centre,53.47609162758,-2.49710207683
069000020610,wrgjmpd,Hurst Mill Lane,53.47418229623,-2.49584432891
069000020620,wrgjmgt,Coronation Avenue,53.47003409956,-2.49475649311
069000020630,wrgjmjw,George & Dragon,53.46404587514,-2.49302994960
069000020635,wrgjmgj,Chat Moss Hotel,53.46613031147,-2.49324993752
069000020640,wrgjmjp,Fowley Common Lane,53.45952573629,-2.49493547934
069000020650,wrgjmpj,Mee Brow Playground,53.45849887526,-2.49761937539
069000020660,wrgapgm,Holcroft Lane,53.45466156263,-2.50810089019
069000020665,wrgapdw,High School,53.45573217368,-2.50787272273
069000020670,wrgapdj,BP Garage,53.45276108864,-2.51321316326
069000020680,wrgapga,Library,53.45252145176,-2.51667372236
069000020690,wrgapdt,CPS Centre,53.45266492163,-2.52089185283
069000020730,wrgjajp,Linear Park,53.45077077550,-2.52851806046
069000020735,wrgdjdw,Water Works,53.44672953150,-2.53777275260
069000020740,wrgdjdj,Lady Lane,53.44454292428,-2.54424917515
069000020750,wrgjgtj,General Elliot,53.44007593596,-2.55200514036
069000020760,wrgjmat,The Horseshoe,53.43743888302,-2.55660732487
069000020761,wrgdjdg,Mustard Lane,53.44438689588,-2.54298250796
069000020762,wrgdjap,Brook House Farm,53.44169518837,-2.54190939989
069000020763,wrgjgwm,Lady Lane,53.43589603934,-2.54421389852
069000020764,wrgjgpw,Eaves Brow Road,53.43380609995,-2.54718251052
069000020765,wrgdtwp,Smithy Brow,53.43705879045,-2.56099784340
069000020766,wrgjmam,Pasture Drive,53.43438919195,-2.55134438073
069000020767,wrgdmgp,Smithy Lane,53.43464104976,-2.55518594841
069000020768,wrgjgwj,The Horseshoe,53.43715575143,-2.55564022662
069000020780,wrgdtwt,Southworth Farm,53.43608097152,-2.57007678990
069000020782,wrgdmjg,Southworth Lane,53.43379636465,-2.57600675391
069000020790,wrgdmgw,Delph Lane,53.43314811298,-2.57994152308
069000020810,wrgadwm,Falcondale Road,53.43180785056,-2.58931522149
069000020820,wrgmama,Ilex Avenue,53.43145823292,-2.59275708185
069000020830,wrgmapg,Post Office,53.43094507809,-2.59652771680
069000020860,wrgmamp,B&Q,53.42412500381,-2.59786180910
069000020870,wrgdapt,Mill Lane,53.41950425050,-2.59797752504
069000020875,wrgdamt,Fordton Leisure,53.41674235945,-2.59845032267
069000020880,wrgdatj,Sandy Lane West,53.41328633368,-2.59752919422
069000020940,wrgdjpm,Winwick Road College,53.40752091209,-2.59466547537
069000020950,wrgdjgd,Alder Lane,53.40391902064,-2.59414894409
069000020960,wrgdjmg,Ireland Street,53.40174375845,-2.59414870790
069000020969,wrgagwg,Tesco,53.39687259688,-2.59400563334
069000020970,wrgagtw,Owen Street,53.39817541884,-2.59411402011
069000020971,wrgadwj,Arbury Lane,53.43262806579,-2.58336618050
069000021010,wrgdtaw,Risley HMP,53.43924273665,-2.52549965263
069000021070,wrgdpwp,Birchwood Park Avenue,53.43029152469,-2.52721031108
069000021080,wrgmjpa,Strawberry Close,53.42193075919,-2.53958135179
069000021081,wrgjdtg,Kelvin Close,53.42922727062,-2.53207341722
069000021090,wrgjdmt,Copperfield Close,53.42563898370,-2.53649813895
069000021100,wrgjgad,Turf & Feather,53.42139381247,-2.53506030309
069000021104,wrgmjma,Locking Stumps Lane,53.41614524871,-2.54481919110
069000021107,wrgjdtd,Heathfield House,53.42371900487,-2.52762555032
069000021109,wrgdtjg,Spar Shop,53.42891164549,-2.50541568808
069000021110,wrgdtgp,Birchwood Forest Park,53.42626185055,-2.50709984954
069000021111,wrgmjmp,Golf Club,53.41969137127,-2.54381125818
069000021112,wrgmjmt,Redvales Court,53.42253415176,-2.54329077767
069000021113,wrgjdta,Heather Close,53.42304082157,-2.53258301196
069000021120,wrgdtja,Country Park,53.42462005202,-2.50847982286
069000021130,wrgdtgd,Keyes Close,53.42163715900,-2.51446323887
069000021140,wrgdtdw,Jay Close,53.42026242872,-2.51224976339
069000021150,wrgjdtm,Nelsons Quarterdeck,53.41786495055,-2.51584707724
069000021160,wrgjgaj,Whinchat Drive,53.41661134709,-2.51888619400
069000021170,wrgjdjt,Library,53.41631743644,-2.52851185571
069000021180,wrgjdpj,Foxwood School,53.41833164719,-2.52426366461
069000021190,wrgjdmg,Fire Station,53.41997376784,-2.52490079962
069000021210,wrgjdtw,Ordnance Avenue,53.42113329693,-2.52285359500
069000021220,wrgjdwj,Roberts Fold,53.41970279978,-2.53129238808
069000021280,wrgmjgt,Blackburne Close,53.41092295470,-2.54084103541
069000021290,wrgatpg,Freshfields Drive,53.41045555694,-2.54479157934
069000021291,wrgatmp,Carpenter Grove,53.40838743040,-2.55082743427
069000021310,wrgdpwa,Stocks Pub,53.40658225020,-2.55630957735
069000021830,wrgmdjd,Central Station,53.39204921323,-2.59329184824
069000021950,wrgdmdm,Holly Bush Lane,53.40060949761,-2.49611615644
069000021960,wrgdmgm,M6 Bridge,53.39860769390,-2.50618431604
069000021970,wrgdmdw,Weir Lane,53.39866757366,-2.51737438126
069000021980,wrgdmda,Gig Lane,53.39889037491,-2.52399448237
069000021990,wrgdmgd,Monmouth Close,53.39833265595,-2.52816856593
069000022070,wrgdptp,St Oswalds Church,53.40242322143,-2.56529482879
069000022080,wrgamaj,Mason Avenue,53.40135954740,-2.56782255883
069000022100,wrgamdg,King & Queen,53.39963672969,-2.56907799882
069000022110,wrgajwm,Briarwood Avenue,53.39852961381,-2.56939408909
069000022120,wrgajwg,Beresford Street,53.39783061601,-2.57270841772
069000022121,wrgdptg,Methodist Church,53.40413979511,-2.56154219655
069000022170,wrgmawt,Rope & Anchor,53.39815591389,-2.53153517659
069000022180,wrgmatd,Cliftonville Road,53.39817425410,-2.53547570072
069000022190,wrgmawa,Greymist Avenue,53.39824809183,-2.53904094798
069000022200,wrgdpmj,Holes Lane,53.39789176731,-2.54624022094
069000022210,wrgdpjw,Dog & Partridge,53.39708596894,-2.54946326561
069000022220,wrgamad,Greenway,53.39745740232,-2.55852156510
069000022230,wrgajtw,Alford Hall,53.39732724314,-2.56516710582
069000022280,wrgawpt,Bridgewater Avenue,53.38637597388,-2.56390938796
069000022290,wrgamdt,Princess Avenue,53.39506287661,-2.56500174872
069000022300,wrgajwa,Bennett Avenue,53.39654028726,-2.56620938664
069000022310,wrgamdm,Peacock Avenue,53.39631370681,-2.56849225477
069000022320,wrgamgj,Cemetery,53.39651145545,-2.57225457543
069000022321,wrgamga,The Allotments,53.39185923465,-2.56387663248
069000022325,wrgamgd,Cemetery,53.39626938806,-2.57399581037
069000022330,wrgdadj,Helsby Street,53.39535275194,-2.57581814747
069000022340,wrgdadw,St Elphin's Park,53.39355848643,-2.57881649653
069000022345,wrgdadp,Parish Church,53.39093074303,-2.58129197318
069000022360,wrgawtg,Orchard Street,53.38978709309,-2.58539635245
069000022390,wrgawdw,Green Dragon,53.39316552121,-2.44878175101
069000022400,wrgawdp,Rushes Meadow,53.39078035420,-2.45200456151
069000022410,wrgdtjw,Sandy Lane,53.38859826988,-2.45850700044
069000022420,wrgdtmd,Whitefield Grove,53.38723412740,-2.46261203190
069000022425,wrgdtjp,Reddish Crescent,53.38550530786,-2.46799076821
069000022440,wrgjtgw,Reddish Lane,53.38375367213,-2.47452644853
069000022450,wrgjtga,Lymm Cross,53.38079466728,-2.47721452984
069000022510,wrgamjt,Woodlands Avenue,53.37541576069,-2.46678281458
069000022525,wrgamgt,Grammar School Road,53.37627618144,-2.46970834604
069000022530,wrgamjg,Manor Road,53.37675060816,-2.47474919066
069000022540,wrgamja,Lymm Church,53.37785744318,-2.47894043062
069000022541,wrgmjpt,Lymm Church,53.37800240162,-2.47865644704
069000022545,wrgamjm,Lakeside Surgery,53.37879657639,-2.48233327074
069000022560,wrgdwjp,Welfare Centre,53.37956091557,-2.48668636375
069000022570,wrgdwam,Barsbank Lane,53.37922760020,-2.49125246839
069000022585,wrgdwda,Daisy Bank Road,53.38074172018,-2.49245752097
069000022595,wrgdwjm,Turnberry Close,53.38388913687,-2.49429796561
069000022630,wrgawja,Thelwall Bridge,53.38270224590,-2.51145283691
069000022670,wrgdwta,Laskey Lane,53.38399250872,-2.51657996397
069000022680,wrgdwpj,Bell Lane,53.38260820110,-2.52072756259
069000022690,wrgdwtg,Pickering Arms,53.38336954903,-2.52544252073
069000022700,wrgdwtp,Stanton Road,53.38249762746,-2.53153549040
069000022740,wrgjmwa,Buntingford Road,53.38232789597,-2.53732135455
069000022750,wrgjpag,Richmond Avenue,53.38214395301,-2.54023556578
069000022760,wrgjmwm,Latchford Locks,53.38085556875,-2.54484947573
069000022765,wrgjmwt,Ollerton Close,53.37959811573,-2.54463799106
069000022770,wrgjmwg,Dog & Dart,53.37727058809,-2.54451808863
069000022780,wrgmdwm,Albert Road,53.37745100680,-2.55220174521
069000022790,wrgmgdg,Pilling Gardens,53.37730169376,-2.55725055004
069000022795,wrgdmaj,Hill Top Road,53.37575022704,-2.56223574910
069000022800,wrgdgdp,Kwik Save,53.37970827218,-2.56159639848
069000022810,wrgdgaj,Cheshire Cheese,53.38062557929,-2.56530662429
069000022820,wrgdgma,Wash Lane,53.38111731572,-2.56964273327
069000022830,wrgjapa,Greenalls Distillery,53.37741958998,-2.58336268975
069000022840,wrgdgjp,Secker Avenue,53.37737011928,-2.57689825374
069000022850,wrgdgaw,Clarke Avenue,53.37759816090,-2.57434588409
069000022860,wrgdgdw,Pearson Avenue,53.37772526099,-2.57221303408
069000022870,wrgdgap,Christ Church,53.37984309062,-2.57106887473
069000022980,wrgdjwd,Cantilever,53.37392597716,-2.56783322342
069000023000,wrgdmap,Lumb Brook Bridge,53.37080604435,-2.56989586692
069000023005,wrgjwjg,Sandy Lane,53.37040054880,-2.57572191370
069000023101,wrgapja,Newchurch Lane,53.44896864132,-2.52134349572
069000023105,wrgdtap,Merefield,53.43736737083,-2.52680117882
069000023106,wrgdtdg,Noggin Inn,53.43184879585,-2.52670280056
069000023428,wrgjwjp,Victoria Road,53.37058463267,-2.58039860519
069000023430,wrgjwjt,Post Office,53.37169294097,-2.58169122790
069000023440,wrgjata,Morrisons,53.37541531147,-2.58332025747
069000023520,wrgjatg,St James' Court,53.38204751486,-2.59092776413
069000023530,wrgjamw,Gainsborough Road,53.37736905923,-2.58450443102
069000023540,wrgjamg,Causeway Hotel,53.37889488818,-2.58679524757
069000023550,wrgjamt,Central Avenue,53.38052682241,-2.58943345539
069000023985,wrgdjtj,Limetree Avenue,53.37179904495,-2.56900732541
069000024270,wrgagja,Town Hall,53.38873714198,-2.60132011591
069000024280,wrgmdjw,Garven Place Alighting Only,53.38877392229,-2.59757666263
069000024300,wrgmdpg,Scotland Road Alighting Only,53.39006117339,-2.59179061704
069000029000,wrgawmj,Glazebrook Lane,53.41774065316,-2.45347921446
069000029010,wrgawjw,Black Swan,53.41613065612,-2.45611009884
069000029020,wrgawmd,Eagle & Child,53.41331537872,-2.45659147686
069000029030,wrgjwgj,Warburton Bridge Road,53.41000325945,-2.46469447722
069000029050,wrgdawj,Rixton New Hall,53.40823088588,-2.46969944533
069000029060,wrgdawd,Moat Lane,53.40481507123,-2.47653581129
069000029070,wrgdawp,Rixton Old Farm,53.40275900357,-2.48043849320
069000029080,wrgdgad,Woodside Farm,53.40189455662,-2.48746773880
069000070110,wrgjdwt,Thomson House,53.42439029921,-2.52214114872
069000070300,wrgagdw,Thynne Street,53.38669093384,-2.60246402238
069000070310,wrgagjm,Arpley Street,53.38588845085,-2.60117471169
069000070763,wrgdmjw,Kenyon Lane,53.45897187518,-2.55547331351
069000070770,wrgdmpd,Main Lane,53.45580961855,-2.55895598874
069000070780,wrgdmpj,The Plough,53.44923575904,-2.55963756379
069000070781,wrgdmjp,Heath Lane,53.44586389920,-2.55409773052
069000070790,wrgjgtw,General Elliott,53.44023535418,-2.55251904895
069000070820,wrgjgtp,General Elliott,53.44033317798,-2.55274613153
069000070821,wrgdmjm,Heath Lane,53.44579073691,-2.55436778825
069000070830,wrgdmpg,The Plough,53.44933342781,-2.55989482368
069000070840,wrgdmpa,Main Lane,53.45590742961,-2.55918316936
069000070841,wrgdmjt,Kenyon Lane,53.45908780901,-2.55567061810
069000075100,wrgjdmp,Chadwick House,53.42664429317,-2.52468202095
069000075110,wrgjdjg,Birchwood Centre,53.41485201274,-2.53060000308
069000080330,wrgdwgw,Statham Lodge,53.38390431051,-2.49928950963
069000080560,wrgdmat,Brook Lane,53.40008542422,-2.50107323950
069000080770,wrgdmjd,Southworth Lane,53.43388697115,-2.57585746028
069000080789,wrgdtwj,Dam Lane,53.43580797715,-2.56510577508
069000080790,wrgdtwm,Smithy Brow,53.43717499878,-2.56113485241
069000080840,wrgdjdt,Water Works,53.44686462403,-2.53771423367
069000080845,wrgjajg,Glaziers Lane,53.44888862319,-2.53134049569
069000085001,wrgjdpw,Heather Close,53.42318416174,-2.53269014102
069000085090,wrgapdp,Chatburn Court,53.45046178457,-2.52110580745
069000085770,wrgdtwg,Dam Lane,53.43572687085,-2.56514985631
069000085800,wrgadwg,Arbury Lane,53.43270888461,-2.58338233922
069000085852,wrgdptd,Conservative Club,53.40788973069,-2.55542407919
069000085885,wrgdjaw,Hodgekinson Farm,53.44343213432,-2.54735141557
069000085896,wrgapjg,Taylor Business Park,53.44583564594,-2.52247949368
0690WNA02794,wrgagjd,Warrington Bank Quay Station,53.38607944085,-2.60251552593
0690WNA02808,wrgdptm,Conservative Club,53.40775497886,-2.55540728042
0690WNA02854,wrgadat,Bus Interchange,53.39106322663,-2.59454122553
0690WNA02855,wrgadap,Bus Interchange,53.39109056538,-2.59446642244
0690WNA02858,wrgadag,Bus Interchange,53.39108240100,-2.59430090338
0690WNA02862,wrgadjd,Bus Interchange,53.39110164974,-2.59404554521
0690WNA02865,wrgadgt,Bus Interchange,53.39113857485,-2.59385058036
0690WNA02867,wrgadad,Bus Interchange,53.39114823621,-2.59371538312
0690WNA02875,wrgjdpt,Carphone Warehouse,53.42391793801,-2.52938867458
0690WNA02879,wrgdtaj,Leacroft Road,53.43064818903,-2.51759729816
0690WNA02880,wrgdtag,Leacroft Road,53.43044178795,-2.51751953601
0690WNA02881,wrgjdjd,Ainscough Road,53.41529257761,-2.52242083019
0690WNA02882,wrgjdja,Ainscough Road,53.41528273335,-2.52261629869
0690WNA02895,wrgjajw,Hob Hey Lane,53.45176352767,-2.52761184002
0690WNA02898,wrgdwjg,Trans Pennine Trail,53.38253626594,-2.49322992581
0690WNA02899,wrgdwjd,Trans Pennine Trail,53.38257315081,-2.49300484574
0690WNA02905,wrgmjwd,Orford Park Centre,53.40494256128,-2.58894373205
0690WNA02923,wrgmpwd,Fujitsu,53.42966985305,-2.52550191874
0690WNA02924,wrgmjwg,Fujitsu,53.42939676195,-2.52628116489
0690WNA02936,wrgmpda,Bradshaw Lane Shops,53.37736024601,-2.54259514086
0690WNA02937,wrgmpdg,All Saints Church,53.38252929122,-2.52845396012
0690WNA02941,wrgmpdt,Chatburn Court ,53.45046972115,-2.52134682872
0690WNA02942,wrgmpdw,Thomson House,53.42506355432,-2.52234503630
0690WNA02943,wrgmpga,Birchwood Park ,53.42387174921,-2.52150276108
0690WNA02944,wrgmpgd,Cherry Tree,53.45335770274,-2.52279774003
0690WNA02945,wrgmpgj," Cherry Tree",53.45338295245,-2.52318957874
0690WNA02959,wrgmpwg,Birchwood Railway Station,53.41280729725,-2.52547447205
100000008345,dbsdpjma,Zion Church,53.44392784287,-1.96762244655
100000008356,dbsdpgpa,Marple Road 91,53.42631456248,-2.00531851176
100000008359,dbsdpgpj,Pennine Way,53.43290335750,-1.86874326000
100000008360,dbsdpgpm,Snake Pass Inn,53.41163613517,-1.83246261973
100000008365,dbsdpgtg,Strines Turn,53.38543768601,-1.66348551429
100000008366,dbsdpgtj,Waterside Road,53.36833639197,-2.02205278826
100000008367,dbsdpgtm,Waterside Road,53.36828244909,-2.02211287438
100000008381,dbsgmgwg,Frith Knoll Road,53.32571849599,-1.90105079846
100000008418,dbsdwmjg,Terrace Road,53.25842918073,-1.91295794738
100000012246,dbsgdmgm,Hargate Hill,53.43922164781,-1.98836985254
100000015749,dbsgdmtp,Snake Pass Inn,53.41145638623,-1.83247836876
100000015750,dbsgdmtw,Pennine Way,53.43286798008,-1.86927016649
100000022308,dbsgpdwa,Croft Manor,53.44327082428,-1.94156268526
100000022309,dbsgpdwd,Hurst View,53.44181259387,-1.93740963091
100051345,dbsjamdw,County Boundary Cottages,53.42562988898,-2.01975021701
100051347,dbsjamga,County Boundary Cottages,53.42555798840,-2.01970503693
100051349,dbsjamgd,Sandy Lane,53.42590916668,-2.01552160888
100051351,dbsjamgj,Sandy Lane,53.42583726251,-2.01549148451
100052531,dbsjawmg,Eccles Fold,53.32119629253,-1.92448000701
100052533,dbsjawmj,Eccles Fold,53.32101661376,-1.92463044283
100052944,dbsjdgat,High Street opp Kings Arms,53.32285391191,-1.91652040390
100053690,dbsjdjtwp,Tomthorn,53.27881484548,-1.89010594711
100053692,dbsjdjtwt,Tomthorn,53.27871587297,-1.89000122032
100055028,dbsjdwdp,Longridge Lane,53.28415907245,-1.87671311163
100055030,dbsjdwdt,Ollerenshaw Cottages,53.32026413238,-1.97256413913
100055032,dbsjdwdw,Ollerenshaw Cottages,53.32014724186,-1.97239908508
1000DAAL3961,dbsgwtdw,Ladybower Inn,53.37500316480,-1.69405059587
1000DAAL3962,dbsgwtga,Ladybower Inn,53.37484102595,-1.69391647827
1000DAAS3966,dbsadwtj,Strines Turn,53.38538362844,-1.66344083620
1000DACB3963,dbsadtgt,Cutthroat Bridge,53.38333878003,-1.67814511889
1000DACB3964,dbsadtgw,Cutthroat Bridge,53.38328286290,-1.67740887776
1000DAPH7880,dbsgwgad,Platting Farm,53.30970495519,-1.88570452328
1000DBAB2820,dbsagjad,Bridgemont,53.33739833138,-1.98219462594
1000DBAB2832,dbsagjag,Bridgemont,53.33768595493,-1.98210440099
1000DBBR3503,dbsjadgw,Waterswallows Lane,53.28008840655,-1.88705816918
1000DBBR3504,dbsjadja,Waterswallows Lane,53.28002540046,-1.88696834925
1000DBBR3505,dbsjadjd,Batham Gate Middle,53.28237494932,-1.88129275722
1000DBBR3506,dbsjadjg,Batham Gate Middle,53.28229403598,-1.88127798254
1000DBBR3507,dbsjadjm,Longridge Lane,53.28409605860,-1.87662329840
1000DBBR3544,dbsjadjp,Tomthorn,53.27936369383,-1.89068944031
1000DBBS2431,dbsjadmt,Sylvan Park,53.25955831481,-1.90833860503
1000DBBSR801,dbsjadpj,Sylvan Park,53.25995377417,-1.90827779964
1000DBFR2430,dbsagmpg,Working Mens Club,53.26040092215,-1.90533866078
1000DBFR2796,dbsagmpj,Working Mens Club,53.26076069753,-1.90562269504
1000DBMP2581,dbsgtdwp,Market Place,53.25638054500,-1.91407130421
1000DBMP2584,dbsgtgad,Market Place,53.25629960303,-1.91401150870
1000DBSR2132,dbsgjpap,Railway Station,53.26051342800,-1.91139468766
1000DBSR2133,dbsgjpat,Railway Station,53.26028979935,-1.91287922778
1000DBTQ2424,dbsgjpwa,Colonnade,53.25935546874,-1.91357067783
1000DBTRP014,dbsgjpwd,Terrace Road,53.25848298224,-1.91277795766
1000DBVGH890,dbsajawt,Grouse Hotel,53.37783491906,-1.96693562475
1000DBVH3656,dbsajdad,Hayfield Road,53.37660478053,-1.97206231435
1000DBVH3657,dbsajdag,Hayfield Road,53.37649716676,-1.97315968146
1000DBVH3658,dbsajdaj,The Vine,53.37565331845,-1.97855639801
1000DBVH3659,dbsajdam,The Vine,53.37559953839,-1.97942823164
1000DBVH5983,dbsajdap,Grouse Hotel,53.37802366288,-1.96687535169
1000DBVN3654,dbsajdaw,Birch Hall Close,53.37864320249,-1.96451481519
1000DBVN3655,dbsajdga,Birch Hall Close,53.37881369338,-1.96353757589
1000DCBR2811,dbsgjdtg,Netherfield Road,53.32463291580,-1.90356051480
1000DCBR2972,dbsgjdtw,Jolly Carter,53.32350537719,-1.89877395180
1000DCFH3512,dbsajmgp,New Inn,53.32250510665,-1.91907320653
1000DCFH3596,dbsajmgt,Burrfields Road,53.32802800966,-1.91181081857
1000DCFM2812,dbsajmjg,Whitestones,53.31869382766,-1.93355114732
1000DCFM3097,dbsajmjm,Town Hall,53.32363419380,-1.91407178462
1000DCFM3511,dbsajmjp,Town Hall,53.32380442621,-1.91330578319
1000DCFM3515,dbsajmjt,Crossings Road,53.32078443272,-1.92709280039
1000DCFM3516,dbsajmjw,Crossings Road,53.32106223259,-1.92571122582
1000DCFM3517,dbsajmpa,Whitestones,53.31881038781,-1.93302557512
1000DCFS3580,dbsajmpg,Council Depot,53.32501985047,-1.90408511298
1000DCFT3548,dbsajmpm,Old Pack Horse,53.32487868046,-1.90744841434
1000DCGR3483,dbsgdwpw,Springmeadow,53.43542863716,-1.98990619490
1000DCGR3484,dbsgdwta,Glossop Road,53.43302892139,-1.99300733891
1000DCLL3799,dbsgjajw,Mote Hall Farm,53.43721775315,-1.99947941943
1000DCLL3800,dbsgjama,Bankwood Mill,53.43916825311,-2.00077401538
1000DCLL3801,dbsgjamd,Mote Hall Farm,53.43716382233,-1.99958478985
1000DCLL3802,dbsgjamg,Long Lane,53.43353240508,-1.99588211246
1000DCLL3803,dbsgjamj,Besthill,53.43998605453,-2.00584718861
1000DCLL4368,dbsgjamp,Long Lane,53.43362228916,-1.99585200109
1000DCLL4369,dbsgjamt,Bankwood Mill,53.43908735859,-2.00051810306
1000DCLL4370,dbsgjamw,Besthill,53.44001301380,-2.00596762349
1000DCMR1156,dbsgjatd,The Hunters,53.42652103205,-2.00947209321
1000DCMR3485,dbsajpmj,Lee Head,53.42919099583,-1.99746276082
1000DCMR3486,dbsajpmp,Lee Head,53.42978421248,-1.99639416051
1000DCMR3805,dbsajpmt,Glossop Road,53.43285814230,-1.99305251993
1000DCMR4595,dbsajpmw,The Hunters,53.42651213987,-2.00820796619
1000DCMR4596,dbsajpta,Marple Road 91,53.42625162544,-2.00567967988
1000DCMR4598,dbsajptd,Holehouse,53.42635961213,-2.00209802029
1000DCMR4599,dbsajptg,Holehouse,53.42658433087,-2.00178200096
1000DCMRN879,dbsajpwg,New Inn,53.32191274052,-1.92039540477
1000DCTE2814,dbsgdtam,Old Pack Horse,53.32475407091,-1.90905510469
1000DCTEH262,dbsgdtap,Town End,53.32505890507,-1.90803354775
1000DDBP4244,dbsgdtjd,Melandra Road,53.45423197207,-1.98437523499
1000DDBS4246,dbsamajg,Cottage Lane,53.45182260751,-1.98118379721
1000DDDV3411,dbsamdgd,The Junction,53.44449428194,-1.96823929331
1000DDDV3413,dbsamdgj,Primary School,53.44598703994,-1.97088804328
1000DDDV3414,dbsamdgm,Primary School,53.44589706729,-1.97052676125
1000DDDV3415,dbsamdgp,Glossop Road,53.44718312550,-1.97356727429
1000DDDV3835,dbsamdgt,Glossop Road,53.44708412885,-1.97301024918
1000DDDV4248,dbsgdadm,Works,53.44908952182,-1.97772185837
1000DDDV4249,dbsgdadp,Works,53.44958394064,-1.97800769068
1000DDHA2973,dbsgdajt,Barmoor Clough,53.31219608714,-1.88703367527
1000DDHB2810,dbsgdama,Barmoor Clough,53.31212440438,-1.88727400577
1000DDHB3518,dbsgdamd,Methodist Church,53.29727597218,-1.88824323926
1000DDHB3543,dbsgdamg,Lower Bibbington,53.29423818432,-1.88867122173
1000DDHB3545,dbsgdamj,Lower Bibbington,53.29422908380,-1.88855122468
1000DDHD2804,dbsgdamp,Queens Head,53.29827264597,-1.88710033975
1000DDHD2841,dbsgdamt,Quarry,53.29705054642,-1.87831146170
1000DDHD2975,dbsamdmt,Queens Head,53.29833556682,-1.88710017421
1000DDHD2976,dbsamdmw,Quarry,53.29710444802,-1.87828130165
1000DDHH2139,dbsamdpg,Bus Depot,53.29982753374,-1.88693119879
1000DDHH2806,dbsamdpj,Brickrow Cottages,53.30454486357,-1.88510301678
1000DDHH2807,dbsamdpm,Platting Farm,53.30968707821,-1.88580962693
1000DDHH2974,dbsamdpt,Brickrow Cottages,53.30382581213,-1.88514996033
1000DDHS3412,dbsgdapj,The Junction,53.44446669550,-1.96596594046
1000DDHTG812,dbsgdata,Bus Depot,53.29993549731,-1.88703594638
1000DDSL4373,dbsgdgja,Brookfield,53.45207397519,-1.97928636182
1000DDSL4374,dbsgdgjd,Brookfield,53.45210995222,-1.97942186792
1000DFBL2590,dbsamjgw,Junior School,53.25851388492,-1.89528447147
1000DFBL2591,dbsgawag,Boarstones Lane,53.26024000119,-1.89559507044
1000DFBL2592,dbsgawaj,Tongue Lane,53.26186787728,-1.89664050371
1000DFBR2572,dbsgawam,Brook House,53.27247153540,-1.89313616360
1000DFBR2577,dbsgawap,Infant School,53.25988429398,-1.90009310251
1000DFBR2593,dbsgawat,Brook House,53.27245346406,-1.89303124385
1000DFBR3502,dbsgawaw,Tomthorn,53.27929193477,-1.89085459382
1000DFBR3546,dbsgawda,Queens Court,53.26130511631,-1.90080937084
1000DFBR4363,dbsgawdg,Lathkil Grove,53.25889510382,-1.89958573422
1000DFFR2797,dbsampta,Church,53.26332800728,-1.90131442253
1000DFFR2978,dbsamptd,Church,53.26320207811,-1.90120976962
1000DFQC2713,dbsgawgw,Queens Court,53.26165526622,-1.90031385393
1000DFQR2714,dbsgawja,Windsor Road,53.26204401417,-1.90302638031
1000DFQR2969,dbsgawjd,Windsor Road,53.26210719036,-1.90334105586
1000DFVB1313,dbsgtgjg,Soldier Dick,53.34905756971,-1.99099262461
1000DFVB2140,dbsgtgjm,Soldier Dick,53.34959691462,-1.99136806440
1000DFVB3513,dbsgtgjp,Redmoor House,53.35730944315,-2.00101242249
1000DFVB3521,dbsgtgjt,Hollins View,53.34565045305,-1.98641203295
1000DFVB3522,dbsgtgjw,Hollins View,53.34565942652,-1.98627684455
1000DFVB3523,dbsgtgma,Primary School,53.34776296602,-1.98816887357
1000DFVB3527,dbsgtgmd,Redmoor House,53.35728248012,-2.00071192752
1000DFVB3537,dbsgtgmg,St Johns Church,53.35300385350,-1.99644524000
1000DFVB3539,dbsgtgmj,Crescent Drive,53.34334927492,-1.98566175983
1000DFVB3540,dbsgtgmp,Dale Farm Dairy,53.35133190261,-1.99458256442
1000DFVB3541,dbsgtgmt,Dale Farm Dairy,53.35108918786,-1.99410187272
1000DFVB3542,dbsgawjw,St Johns Church,53.35294992458,-1.99655040645
1000DFVB3547,dbsgawma,Crescent Drive,53.34360097627,-1.98582689583
1000DFVPR802,dbsgawmj,Fairfield Centre,53.25732845237,-1.89653150167
1000DGCL3416,dbsgawpj,Cottage Lane South End,53.44611479747,-1.98040337045
1000DGGR3421,dbsgtgmw,Samas Roneo,53.44441652902,-1.98421316622
1000DGGR3476,dbsgtgpa,Samas Roneo,53.44493769033,-1.98294830432
1000DGGR3477,dbsgtgpd,Railway Bridge,53.44330234230,-1.98754073617
1000DGGR3478,dbsgtgpg,Railway Bridge,53.44350006895,-1.98734496311
1000DGGR3479,dbsgtgpj,St Margarets School,53.44170241510,-1.98778206593
1000DGGR3480,dbsgtgpm,St Margarets School,53.44170242709,-1.98790250172
1000DGGR3804,dbsgtgpt,Hargate Hill,53.43884412950,-1.98835489983
1000DGGR4435,dbsgtgpw,Springmeadow,53.43586904734,-1.98958999260
1000DGHS0900,dbsgtgwj,Henry Street,53.44384048890,-1.94899919161
1000DGHS1150,dbsgtgwm,Howard Arms,53.44330081866,-1.94815675230
1000DGHS3403,dbsgtgwp,Arundel Street,53.44334732076,-1.95190540521
1000DGHS3404,dbsgtgwt,Arundel Street,53.44351863682,-1.95326017338
1000DGHS3405,dbsgtjad,St Marys Road,53.44342954771,-1.95535292756
1000DGHS3406,dbsgtjag,St Marys Road,53.44351059442,-1.95575933118
1000DGHS3407,dbsgtjaj,Sunlaws Street,53.44336783870,-1.95874038128
1000DGHS3408,dbsgtjam,Sunlaws Street,53.44349377536,-1.95902630710
1000DGHS3409,dbsgajwa,Summers Place,53.44357519010,-1.96057690840
1000DGHS3410,dbsgajwd,Grapes Inn,53.44422306149,-1.96277439609
1000DGHS4258,dbsgajwg,Regency Close,53.44401772044,-1.94333818973
1000DGHS4259,dbsgajwj,Regency Close,53.44373932497,-1.94386549030
1000DGHSW936,dbsgajwm,Market Hall,53.44323860905,-1.94982793473
1000DGMC3417,dbsgamga,Edale Crescent,53.44827246243,-1.98326318220
1000DGMC3418,dbsgamgd,Eyam Lane,53.45061902178,-1.98806565723
1000DGMC3419,dbsgamgj,The Centurion,53.44543292191,-1.99106318151
1000DGMC3420,dbsgamgm,Youlgreave Crescent East,53.44491111698,-1.98601965895
1000DGMC4584,dbsgtjap,Hathersage Crescent,53.44941420531,-1.98482868933
1000DGMCR937,dbsgtjat,Hollins Lane,53.44862369321,-1.98930087173
1000DGNS4371,dbsgamjd,Henry Street,53.44384961759,-1.94933039590
1000DGSD4386,dbsgtjma,Hurstbrook Close,53.44406413242,-1.92918613532
1000DGSD4388,dbsgtjmg,Hillwood Drive,53.44216810100,-1.93010760947
1000DGSR1146,dbsgtjmp,Royal Oak,53.44443128691,-1.92689709984
1000DGSR4251,dbsgtjmt,Cowbrook Avenue,53.44464094779,-1.93186506155
1000DGSR4252,dbsgtjmw,Cowbrook Avenue,53.44464142378,-1.93270816969
1000DGSR4253,dbsgtjpa,Brook Meadow,53.44472335294,-1.93457492830
1000DGSR4254,dbsgtjpd,Brook Meadow,53.44479531004,-1.93466515162
1000DGSR4256,dbsgampj,Commercial Inn,53.44474385286,-1.93937761799
1000DGSR4257,dbsgampm,Commercial Inn,53.44467190694,-1.93930244233
1000DGSR4385,dbsgampt,Royal Oak,53.44433313283,-1.92808664492
1000DHBH3666,dbsgtjwt,White Gate House,53.36715952095,-2.01834021196
1000DHBH3667,dbsgtmad,White Gate House,53.36719549638,-2.01820497387
1000DHBH3668,dbsgtmag,Primary School,53.36798491857,-2.02651606137
1000DHBH3669,dbsgtmaj,Primary School,53.36804775050,-2.02690684167
1000DHBP4245,dbsgtmdg,Melandra Road,53.45392630502,-1.98392358139
1000DHCS4283,dbsampwg,St Andrews Church,53.46076338644,-1.96809170298
1000DHCS4391,dbsampwt,St Andrews Church,53.46061058656,-1.96810687776
1000DHNL1938,dbsapgpt,Glossopdale College,53.45740298326,-1.97338027094
1000DHNL3785,dbsapgpw,Oakfield Road,53.45343995075,-1.97774972588
1000DHNL3786,dbsapgta,Oakfield Road,53.45364661016,-1.97734303429
1000DHNL4230,dbsapgtd,Thorncliffe Road,53.45525542084,-1.97667958019
1000DHNL4281,dbsapgtj,Glossopdale College,53.45753770978,-1.97292838527
1000DHNL4394,dbsapgtm,Goddard Road,53.45872371400,-1.97089447150
1000DHNM3646,dbsapgwj,New Mills Road 38,53.37858349383,-1.94855066175
1000DHNM3647,dbsapgwm,New Mills Road 38,53.37863735433,-1.94838524269
1000DHNM3648,dbsapgwp,The Birches,53.37845891082,-1.95157227579
1000DHNM3649,dbsapgwt,The Birches,53.37881874913,-1.95230845194
1000DHNM3650,dbsapjad,Quarry,53.37989013491,-1.95692229003
1000DHNM3653,dbsapjag,Quarry,53.37993506165,-1.95687714692
1000DHSR2159,dbsapmja,Railway Station,53.46153585115,-1.96610301194
1000DHSR3322,dbsapmjd,Albert Street,53.46411653216,-1.96983644822
1000DHSR3797,dbsapmpt,Masons Arms,53.46294758255,-1.96809007879
1000DHSR3798,dbsdwtja,Masons Arms,53.46344207449,-1.96857170031
1000DHSR4274,dbsdwtjd,Albert Street,53.46396367921,-1.96964074509
1000DHSR4372,dbsdwtjg,Railway Station,53.46151796704,-1.96643437871
1000DHSRB893,dbsapmtw,Bus Station,53.37923015027,-1.94734729160
1000DHWB4243,dbsaptgm,Woolley Bridge,53.45705452935,-1.98581996708
1000DHWBW940,dbsaptgp,Woolley Bridge,53.45860066083,-1.98684357216
1000DHWG4276,dbsaptjg,Goddard Lane,53.46801765244,-1.97036093921
1000DHWG4393,dbsdwgmw,Goddard Lane,53.46816147137,-1.97037590375
1000DHWI4275,dbsdwgpj,Waterside Business Park,53.46573480748,-1.97128135676
1000DHWI4282,dbsdwgpm,Waterside Business Park,53.46507867881,-1.97140229748
1000DNAR3534,dbsdtgtg,Newtown Railway Station,53.36012263893,-2.00744350925
1000DNAR3536,dbsdtgtj,Old Post Office,53.35908881668,-2.00926138933
1000DNARO263,dbsdptmt,Old Post Office,53.35895396305,-2.00956186519
1000DNARS862,dbsdptmw,Newtown Railway Station,53.36015857563,-2.00771397869
1000DNBR3529,dbsdptpj,Chalkers Snooker Club,53.35847773617,-2.00721783557
1000DNBR3530,dbsdptpm,Chalkers Snooker Club,53.35850468477,-2.00748829277
1000DNMA3528,dbsawatw,Jodrell Street,53.36244192015,-2.00242506895
1000DNMA3531,dbsawawa,Jodrell Street,53.36291833874,-2.00113280352
1000DNMA3532,dbsawawd,Victoria Street,53.36170478546,-2.00458880456
1000DNMA5981,dbsawawm,Victoria Street,53.36162386809,-2.00505460867
1000DNMBS214,dbsdpwtw,Bus Station,53.36537221524,-2.00204956454
1000DNMC3514,dbsdtada,Marsh Lane,53.36531812278,-1.99312320571
1000DNMC3613,dbsdtadg,Queens Bridge,53.36343968504,-1.99916430004
1000DNMC3616,dbsdtadj,Jubilee Street,53.36420368050,-1.99672989262
1000DNMC3617,dbsdtadm,Jubilee Street,53.36463509851,-1.99555773324
1000DNMC3631,dbsdtadp,Queens Bridge,53.36332283443,-1.99982548226
1000DNMH3641,dbsawgag,Council Depot,53.36558765488,-2.00833112556
1000DNMH3645,dbsawgaj,Council Depot,53.36544385840,-2.00803054504
1000DNMH3660,dbsawgam,Ellerscroft,53.37263418407,-1.98553186690
1000DNMH3661,dbsawgap,Ellerscroft,53.37259825100,-1.98571224003
1000DNMH3662,dbsawgat,High Hill Road,53.37060301062,-1.98781701069
1000DNMH3664,dbsawgaw,White Gates,53.36541638025,-2.01356068540
1000DNMH3665,dbsawgda,White Gates,53.36550626981,-2.01353065930
1000DNML3638,dbsawgjw,Marsh Lane,53.36582139924,-1.99172555052
1000DNML3663,dbsawgma,Cale Road,53.36878735426,-1.98823832269
1000DNMLL660,dbsdtagj,Cale Road,53.36641448634,-1.98960650240
1000DNRS1985,dbsawjga,Newtown Station Forecourt,53.35960121994,-2.00858535500
1000DPDB2525,dbsawjwd,School Road,53.28605948646,-1.87177274436
1000DPDB3468,dbsawjwg,School Road,53.28593409442,-1.87219311001
1000DPDT2800,dbsdpdad,Old Station,53.28831717281,-1.86498576622
1000DPDT2803,dbsdpdag,Old Station,53.28825421801,-1.86495596331
1000DSPR3473,dbsdatag,Police Station,53.43983853965,-1.96938682647
1000DSSL3470,dbsdjdpa,Zion Church,53.44390984157,-1.96753212860
1000DSSL3471,dbsdjdpd,Bowland Road,53.44212143895,-1.96869268695
1000DSSL3472,dbsdjdpg,Bowland Road,53.44201363552,-1.96891858430
1000DSWR3474,dbsdatdp,Werneth Road Middle,53.43747429272,-1.96833480245
1000DSWR3475,dbsdatdt,Police Station,53.43972174257,-1.96959766254
1000DSWRA941,dbsdgwdg,Arden Close,53.43857933064,-1.96631683607
1000DTMR4354,dbsdjtaw,Arnfield Towers,53.47007830514,-1.98201944981
1000DTMR4357,dbsdjtdg,Matthew Close,53.47190190882,-1.97596249637
1000DTMR4359,dbsdjtdm,New Road,53.47212605308,-1.97326569339
1000DTMT2640,dbsdjagj,Tom Lane,53.31691204773,-1.94760375946
1000DTMT3508,dbsdjagm,Tom Lane,53.31685812222,-1.94761883568
1000DTMT3509,dbsdjagp,Milton Lane,53.31761553824,-1.95335202932
1000DTMT3510,dbsdgmap,Milton Lane,53.31771431422,-1.95309673845
1000DTMT3519,dbsdgmat,Hanging Gate,53.31677385919,-1.94041390752
1000DTMT3520,dbsdgmaw,Hanging Gate,53.31683677993,-1.94041382027
1000DTNR4360,dbsdatpa,New Road,53.47191904578,-1.97206060897
1000DWBB2150,dbsdgpjg,Railway Station,53.33019868466,-1.98411952397
1000DWBB2151,dbsdgpjm,Railway Station,53.33047731739,-1.98399929990
1000DWBB2823,dbsdgpjp,White Horse,53.32417639075,-1.98500749449
1000DWBB2830,dbsdgpjt,White Horse,53.32327753834,-1.98512790611
1000DWBC2821,dbsdgpmd,Cadster Farm,53.31875308971,-1.96869221605
1000DWBC2822,dbsdgpmg,Cadster Farm,53.31869019626,-1.96879733975
1000DWBC2824,dbsdgpmj,Old Road,53.32272891102,-1.98272608249
1000DWBC2825,dbsdgpmp,Board Inn,53.32140721906,-1.98038471973
1000DWBC2828,dbsdgpmt,Board Inn,53.32095766372,-1.97964933770
1000DWBC2829,dbsdgpmw,Old Road,53.32244123029,-1.98242594754
1000DWBM2831,dbsdatwg,Primary School,53.32658532233,-1.98475142819
1000DWBM2834,dbsdatwj,Primary School,53.32591117600,-1.98478169177
1800AMIC0A1,MANTJWJW,Altrincham Interchange,53.38790379110,-2.34741655354
1800AMIC0B1,MANTJWMA,Altrincham Interchange,53.38763321899,-2.34773009393
1800AMIC0C1,MANTJWMD,Altrincham Interchange,53.38748002157,-2.34786416338
1800AMIC0D1,MANTJWMG,Altrincham Interchange,53.38733585626,-2.34798327022
1800AMIC0E1,MANTJWMJ,Altrincham Interchange,53.38719155921,-2.34814748113
1800ANAR011,,Ashton-under-Lyne Interchange,53.49023597933,-2.09831902615
1800ANAR021,,Ashton-under-Lyne Interchange,53.48963478122,-2.09706670187
1800ANBS0P1,MANTMADG,Ashton Bus Station,53.49023716388,-2.09687214936
1800ANIN0A1,MANGP,Ashton-under-Lyne Interchange,53.49052437536,-2.09738524556
1800ANIN0B1,MANGT,Ashton-under-Lyne Interchange,53.49050610250,-2.09774692576
1800ANIN0C1,MANGW,Ashton-under-Lyne Interchange,53.49047884014,-2.09810858485
1800ANIN0D1,MANJA,Ashton-under-Lyne Interchange,53.49029055358,-2.09753542530
1800ANIN0E1,MANJD,Ashton-under-Lyne Interchange,53.49007540929,-2.09682656497
1800ANIN0F1,MANJG,Ashton-under-Lyne Interchange,53.48999453811,-2.09679623713
1800ANIN0G1,MANJM,Ashton-under-Lyne Interchange,53.48992265532,-2.09676592992
1800ANIN0H1,MANJP,Ashton-under-Lyne Interchange,53.48985077253,-2.09673562281
1800ANIN0J1,MANJT,Ashton-under-Lyne Interchange,53.48977887750,-2.09672038728
1800ANIN0K1,MANJW,Ashton-under-Lyne Interchange,53.48971598310,-2.09669010085
1800ANIN0L1,MANPA,Ashton-under-Lyne Interchange,53.48993197336,-2.09635901924
1800ANIN0M1,MANPD,Ashton-under-Lyne Interchange,53.49010267997,-2.09644983690
1800ANIN0N1,MANPG,Ashton-under-Lyne Interchange,53.49031825526,-2.09663118759
1800ANIN1D1,MANAP,Ashton Interchange,53.49026348964,-2.09765593641
1800BNIN0A1,MANWADTD,Bolton Interchange,53.57570801646,-2.42812079582
1800BNIN0B1,MANWADTG,Bolton Interchange,53.57561017508,-2.42783286647
1800BNIN0C1,MANWADTJ,Bolton Interchange,53.57550345296,-2.42751464463
1800BNIN0D1,MANWADTM,Bolton Interchange,53.57540555615,-2.42724181956
1800BNIN0E1,MANWADTP,Bolton Interchange,53.57532568872,-2.42695407549
1800BNIN0F1,MANWADTW,Bolton Interchange,53.57544237146,-2.42700055792
1800BNIN0G1,MANWADWA,Bolton Interchange,53.57550474833,-2.42715220764
1800BNIN0H1,MANWADWD,Bolton Interchange,53.57555856867,-2.42718295465
1800BNIN0J1,MANWADWG,Bolton Interchange,53.57558547883,-2.42719832819
1800BNIN0K1,MANWADWJ,Bolton Interchange,53.57563031112,-2.42722898465
1800BNIN0L1,MANWADWM,Bolton Interchange,53.57567514339,-2.42725964117
1800BNIN0M1,MANWADWP,Bolton Interchange,53.57571098762,-2.42729020709
1800BNIN0N1,MANWADWT,Bolton Interchange,53.57576480792,-2.42732095442
1800BNIN0P1,MANWAGAD,Bolton Interchange,53.57580065213,-2.42735152045
1800BNIN0Q1,MANWAGAG,Bolton Interchange,53.57585452639,-2.42736716626
1800BNIN0R1,MANWAGAJ,Bolton Interchange,53.57589037058,-2.42739773240
1800BNIN0S1,MANWAGAM,Bolton Interchange,53.57594424484,-2.42741337830
1800BNIN0T1,MANWAGAP,Bolton Interchange,53.57598008902,-2.42744394454
1800BNIN0U1,MANWAGAT,Bolton Interchange,53.57603390928,-2.42747469227
1800BNIN0V1,MANWAGAW,Bolton Interchange,53.57607874149,-2.42750534935
1800BNIN0W1,MANWAGJG,Bolton Interchange,53.57611458565,-2.42753591576
1800BNIN0X1,MANWAGJM,Bolton Interchange,53.57615048380,-2.42755138046
1800BNIN0Y1,MANWAGJP,Bolton Interchange,53.57619531599,-2.42758203770
1800BYIC0A1,MANTMAWD,Bury Interchange,53.59162792505,-2.29722162692
1800BYIC0B1,MANTMAWG,Bury Interchange,53.59156560872,-2.29697946527
1800BYIC0C1,MANTMAWJ,Bury Interchange,53.59151228005,-2.29673736736
1800BYIC0D1,MANTMAWM,Bury Interchange,53.59138712064,-2.29646455142
1800BYIC0E1,MANTMAWP,Bury Interchange,53.59127072416,-2.29628244428
1800BYIC0F1,MANTMAWT,Bury Interchange,53.59106339751,-2.29652271383
1800BYIC0H1,MANTMDAG,Bury Interchange,53.59129667703,-2.29669053258
1800BYIC0J1,MANTMDAJ,Bury Interchange,53.59130499003,-2.29696252865
1800BYIC0K1,MANTMDAM,Bury Interchange,53.59135831825,-2.29720462566
1800BYIC0L1,MANTMDAP,Bury Interchange,53.59144823726,-2.29719014947
1800BYIC0N1,MANTMDAW,Bury Interchange,53.59150152743,-2.29744735504
1800BYIC0O1,MANTMDGA,Bury Interchange,53.59155477943,-2.29771966874
1800BYIC0P1,MANTMDGD,Bury Interchange,53.59135640041,-2.29797510354
1800BYIC0R1,MANTMDGJ,Bury Interchange,53.59128521032,-2.29768755695
1800BYIC0T1,MANTMDGP,Bury Interchange,53.59108032390,-2.29694584452
1800BYIC0V1,MANTMDGT,Bury Interchange,53.59097291629,-2.29676380041
1800CNBS001,MANADAGJ,Chorlton Bus Station,53.43762065226,-2.27458892447
1800EB00011,MANWAGJW,Piccadilly Rail Station,53.47874261845,-2.23245430447
1800EB00021,MANWAGTA,The Huntington,53.45757124824,-2.19419125857
1800EB00031,MANADAGT,Daisy Bank Road,53.45714491737,-2.21729129505
1800EB00071,MANADAGW,St Georges Drive,53.50949513663,-2.19007115546
1800EB00081,MANADAJA,Warwick Street,53.48323582883,-2.23297617741
1800EB00111,MANADAJG,Hollinwood Avenue,53.52448647811,-2.17319920706
1800EB00151,MANADAJM,East Didsbury Metrolink Stop,53.41114890187,-2.21824497926
1800EB00241,MANADAJP,Leyton Avenue,53.50884341967,-2.18726367572
1800EB00251,MANADAJT,Kenyon Lane,53.50880518705,-2.18871102045
1800EB00281,MANADAMA,Belle Vue Station,53.46223201797,-2.17969301893
1800EB00531,MANADAMD,Matthews Lane,53.45100467881,-2.18017258113
1800EB00621,MANADAMP,Lavister Avenue,53.41962571985,-2.21293180614
1800EB00831,MANADAMT,Great Ancoats Street,53.47875493263,-2.22124406209
1800EB00851,MANADAPA,Piccadilly Gardens,53.48144220868,-2.23548279212
1800EB01101,MANADAPM,Thorncliffe Grove,53.44392805782,-2.18193417431
1800EB01161,MANADAPT,Travis Street,53.47568077221,-2.23079530028
1800EB01171,MANADAPW,Travis Street,53.47503520881,-2.22996314684
1800EB01181,MANADATA,Travis Street,53.47560994173,-2.23023745474
1800EB01201,MANADATG,Manchester Piccadilly Rail Station,53.47682999973,-2.23146448860
1800EB01241,MANADATW,Asda,53.45715061888,-2.19854166626
1800EB01251,MANADAWA,Paton Street,53.48008854890,-2.23365204886
1800EB01261,MANADAWD,Piccadilly,53.48042043942,-2.23400044323
1800EB01281,MANADAWJ,Asda,53.45696141083,-2.19881186068
1800EB01291,MANADAWM,Pink Bank Lane,53.45830289236,-2.19198072681
1800EB01311,MANADAWP,Piccadilly Gardens,53.48121645833,-2.23600893802
1800EB01331,MANADAWT,Piccadilly Gardens,53.48161054386,-2.23671935338
1800EB01341,MANADGAD,Piccadilly Gardens,53.48196177643,-2.23637472920
1800EB01501,MANADGAG,Chancellor Lane,53.47511672455,-2.21516845143
1800EB01531,MANADGAJ,Every Street,53.48121038033,-2.21545548349
1800EB01551,MANADGAM,Nuthurst Road,53.51732529694,-2.17757369338
1800EB01591,MANADGAP,Fallowfield Shopping Centre,53.44271213626,-2.20559520600
1800EB01601,MANADGAT,Lytham Road,53.44571279046,-2.20646789942
1800EB01611,MANADGAW,Old Hall Lane,53.44771606149,-2.20714011727
1800EB01621,MANADGDA,Telfer Road,53.44946704857,-2.20815748241
1800EB01641,MANADGDG,Birch Hall Lane,53.45095746781,-2.20911341851
1800EB01651,MANADGDJ,Birchfields Road,53.45351542692,-2.21124927334
1800EB01661,MANADGDM,Denison Road,53.45625747073,-2.21596150984
1800EB01671,MANADGDP,Daisy Bank Road,53.45759255126,-2.21827249116
1800EB01731,MANADGDT,Grosvenor Street,53.47077671839,-2.23354058732
1800EB01741,MANADGDW,Booth Street East,53.46915343302,-2.23167876742
1800EB01751,MANADGJA,Brunswick Street,53.46786207869,-2.23013522383
1800EB01771,MANADGJG,Hyde Grove,53.46395935893,-2.22154359812
1800EB01781,MANADGJM,Lincoln Grove,53.46292366282,-2.21775763471
1800EB01791,MANADGJP,Winterford Avenue,53.46237900871,-2.21575162246
1800EB01801,MANADGJT,Richmond Grove,53.46035004149,-2.20934035677
1800EB01821,MANADGJW,Clarence Road,53.45980782674,-2.20584355616
1800EB01831,MANADGMA,Clarence Road,53.45970032936,-2.20563218344
1800EB01841,MANADGMD,Daisy Bank Road,53.46010785616,-2.20905300478
1800EB01851,MANADGMG,Hathersage Road,53.46119872515,-2.21229657090
1800EB01861,MANADGMJ,Winterford Avenue,53.46255672924,-2.21688216570
1800EB01871,MANADGMP,Lincoln Grove,53.46311920298,-2.21896360302
1800EB01881,MANADGMT,Hyde Grove,53.46386034680,-2.22161839375
1800EB01901,MANADGPA,Upper Brook Street,53.46389815217,-2.22542936759
1800EB01911,MANADGPD,Swinton Grove,53.46191593506,-2.22317466824
1800EB01921,MANADGPG,Hathersage Road,53.45869602593,-2.21942275616
1800EB01931,MANADGPJ,Denison Road,53.45520077003,-2.21377254686
1800EB01941,MANADGPM,Upper Kent Road,53.45460957957,-2.21262508510
1800EB01951,MANADGPT,Birchfields Avenue,53.45197207558,-2.20973579196
1800EB01961,MANADGPW,Telfer Road,53.44905436826,-2.20770374921
1800EB01971,MANADGTA,Old Hall Lane,53.44680917016,-2.20659367283
1800EB01981,MANADGTD,Lytham Road,53.44458115896,-2.20593546249
1800EB01991,MANADGTG,Fallowfield Shopping Centre,53.44367379480,-2.20566007543
1800EB02031,MANADGTJ,The Unicorn,53.48314488571,-2.23806906102
1800EB02041,MANADGTM,Lavister Avenue,53.41992239288,-2.21290319646
1800EB02061,MANADGTW,Berwick Avenue,53.41659496491,-2.21383443182
1800EB02071,MANADGWA,Berwick Avenue,53.41610907482,-2.21411785530
1800EB02521,MANADGWD,Dresden Street,53.51135036368,-2.18198195432
1800EB02541,MANADGWG,Gaskell Street,53.50023916311,-2.17701977878
1800EB02551,MANADGWJ,Minshull Street South,53.47706097215,-2.23286698003
1800EB02641,MANADJAM,Carruthers Street,53.48135514498,-2.21492881897
1800EB02651,MANADJAP,Carruthers Street,53.48046382853,-2.21573799292
1800EB02711,MANADJDA,Sunny Brow Park,53.45860754718,-2.17506918905
1800EB02721,MANADJDG,Radnor Street,53.46052918454,-2.17635730361
1800EB02731,MANADJDJ,Ryder Brow Station,53.45604004100,-2.17287497633
1800EB02741,MANADJDM,Hemsworth Road,53.45438682332,-2.17241648282
1800EB02751,MANADJDP,Hemsworth Road,53.45355653564,-2.16846773933
1800EB02761,MANADJDT,Sandown Crescent,53.45209566304,-2.17178980449
1800EB02781,MANADJDW,Wembley Road,53.45397650999,-2.17640540961
1800EB02791,MANADJGA,Balmain Avenue,53.45381036294,-2.17932612277
1800EB02801,MANADJGD,Belle Vue,53.46182404654,-2.18199572057
1800EB02811,MANADJGJ,Kirkmanshulme Lane,53.46194022896,-2.18243300612
1800EB02831,MANADJGM,Windsor Street,53.45987472874,-2.18121926567
1800EB02841,MANADJGP,Windsor Road,53.45933574353,-2.18100611716
1800EB02851,MANADJGT,Buckley Road,53.45819389385,-2.18121209874
1800EB02861,MANADJGW,Buckley Road,53.45764587435,-2.18102904058
1800EB02871,MANADJMA,Darras Road,53.45609959089,-2.18120316983
1800EB02881,MANADJMD,Darras Road,53.45556060529,-2.18099004053
1800EB02891,MANADJMG,Melland Road,53.45396043650,-2.18113381554
1800EB02901,MANADJMJ,Melland Road,53.45312510624,-2.18073873421
1800EB02911,MANADJMP,Hall Moss Road,53.52600609762,-2.19607332470
1800EB02921,MANADJMT,Matthews Lane,53.44961244730,-2.17951921731
1800EB02931,MANADJMW,Manor Road,53.44770705689,-2.17940577574
1800EB02941,MANADJPA,Manor Road,53.44724801172,-2.17982541954
1800EB02961,MANADJPD,Milford Drive,53.43646720782,-2.18218826102
1800EB02981,MANADJPJ,Stockport Road,53.43575469549,-2.18376571064
1800EB02991,MANADJPM,Carrill Grove,53.44550421858,-2.19139598649
1800EB03011,MANADJTA,Delamere Road,53.44214487572,-2.18992056652
1800EB03551,MANADJTD,Longden Road,53.45029228744,-2.19313409918
1800EB03561,MANADJTG,Longden Road,53.44982591109,-2.19249957112
1800EB03571,MANADJTJ,Woodfold Avenue,53.44785855998,-2.19179805739
1800EB03581,MANADJTM,Mayford Road,53.44756247369,-2.19146547729
1800EB03591,MANADJTP,Carrill Grove,53.44561169314,-2.19163736431
1800EB03601,MANADJTW,Albert Road,53.44370641009,-2.19146317125
1800EB03611,MANADJWA,Albert Road,53.44288026981,-2.19096263974
1800EB03621,MANADJWD,Crayfield Road,53.44121129731,-2.18914862703
1800EB03631,MANADJWG,Crayfield Road,53.44070017071,-2.18837859256
1800EB03641,MANADJWJ,Broom Lane,53.43917459647,-2.18680626092
1800EB03651,MANADJWM,Broom Lane,53.43949728350,-2.18737971949
1800EB03661,MANADJWP,Lloyd Road,53.43641802670,-2.18494268145
1800EB03671,MANADJWT,Crossley Road,53.43601666560,-2.19428853178
1800EB03681,MANADMAD,Cringle Park,53.43712312616,-2.19375168170
1800EB03691,MANADMAG,Crompton Road,53.43721281501,-2.19387251351
1800EB03701,MANADMAJ,Clare Road,53.43924561971,-2.19300866831
1800EB03711,MANADMAM,Milwain Road,53.43975759557,-2.19323679872
1800EB03721,MANADMAP,Alma Road,53.44240078248,-2.19288749417
1800EB03731,MANADMAT,Alma Road,53.44231974043,-2.19297745491
1800EB03741,MANADMAW,Levenshulme Station,53.44413501538,-2.19322657789
1800EB03751,MANADMDA,Levenshulme Station,53.44397307716,-2.19331617391
1800EB03761,MANADMDG,Assembly Hall,53.44365092849,-2.19792159718
1800EB03771,MANADMDJ,Slade Lane,53.44308169684,-2.19969543671
1800EB03781,MANADMDM,Kingsway Hotel,53.44268199674,-2.20219266465
1800EB03791,MANADMDP,Kingsway Hotel,53.44247490536,-2.20240244700
1800EB03811,MANADMDT,Albert Road,53.44305583839,-2.19903289622
1800EB03821,MANADMDW,Scarisbrick Road,53.44139149241,-2.19991331686
1800EB03831,MANADMGA,Scarisbrick Road,53.44082527118,-2.19988054717
1800EB03841,MANADMGD,Cringle Hall Road,53.43965591536,-2.20038688062
1800EB03851,MANADMGJ,York House,53.43906361239,-2.19982710831
1800EB03861,MANADMGM,Acacias School,53.43747197647,-2.20022606268
1800EB03871,MANADMGP,Acacias School,53.43733747805,-2.20002974117
1800EB03881,MANADMGT,Crossley Road,53.43586289307,-2.20030880394
1800EB03891,MANADMGW,Crossley Road,53.43538670748,-2.20018614370
1800EB03901,MANADMJA,Mauldeth Road,53.43290506094,-2.20067116296
1800EB03921,MANADMJG,Mauldeth Road,53.43222209047,-2.20057763488
1800EB03931,MANADMJM,Farmers Arms,53.43063918511,-2.20112704498
1800EB03941,MANADMJP,St Bernard's,53.42912920068,-2.20107475769
1800EB03951,MANADMJT,Burnage High School,53.42763428941,-2.20273819192
1800EB03961,MANADMJW,Burnage High School,53.42743669675,-2.20264695381
1800EB03971,MANADMPA,Ladybarn Lane,53.44192346891,-2.21448865153
1800EB03981,MANADMPD,Ladybarn Lane,53.44206957716,-2.21320974437
1800EB03991,MANADMPG,Lindleywood Road,53.44202334154,-2.20885872825
1800EB04001,MANADMPJ,Lindleywood Road,53.44188496686,-2.21087536089
1800EB04071,MANADMPM,Laystall Street,53.48195219792,-2.22742383542
1800EB04131,MANADMPW,Crossley Road,53.43504559409,-2.19447977472
1800EB04141,MANADMTA,Avon Road,53.43181662214,-2.19575940128
1800EB04151,MANADMTD,Avon Road,53.43099847499,-2.19587604278
1800EB04161,MANADMTG,Shawbrook Road,53.42949626380,-2.19656143603
1800EB04171,MANADMTJ,Shawbrook Road,53.42876782642,-2.19678382005
1800EB04181,MANADMTM,Westdean Crescent,53.42729861054,-2.19924512923
1800EB04191,MANADMTP,Westdean Crescent,53.42702857947,-2.19946960467
1800EB04201,MANADMTW,Carrgreen Close,53.42465775098,-2.20352158202
1800EB04211,MANADMWA,Carrgreen Close,53.42439662315,-2.20379120430
1800EB04221,MANADMWD,Barcicroft Road,53.42284370249,-2.20778649422
1800EB04231,MANADMWG,Barcicroft Road,53.42250148506,-2.20816101660
1800EB04241,MANADMWJ,Lane End Road,53.42104059708,-2.21086236923
1800EB04251,MANADMWM,Burnage Lane,53.42074197767,-2.21198942245
1800EB04311,MANADMWT,Clayton Avenue,53.42152951096,-2.22847022533
1800EB04321,MANADPAD,Clayton Avenue,53.42171688310,-2.22919350845
1800EB04331,MANADPAG,Wilmslow Road,53.42250310040,-2.23166556857
1800EB04341,MANADPAJ,Wilmslow Road,53.45213975120,-2.22140672072
1800EB04351,MANADPAM,Wilmslow Road,53.45190515759,-2.22188735888
1800EB04361,MANADPAP,Birch Polygon,53.45285143525,-2.21562798234
1800EB04371,MANADPAT,Birch Polygon,53.45300453744,-2.21546311525
1800EB04381,MANADPAW,Ashover Avenue,53.46709254002,-2.20348374758
1800EB04391,MANADPDA,Birchfields Road,53.45363067344,-2.21215336927
1800EB04401,MANADPDG,Dickenson Road,53.45410996616,-2.21051434172
1800EB04421,MANADPDJ,Clarence Road,53.45478038385,-2.20750583572
1800EB04431,MANADPDM,Clarence Road,53.45482658066,-2.20678322230
1800EB04441,MANADPDP,Longsight Market,53.45604941508,-2.20129242519
1800EB04451,MANADPDT,Longsight Market,53.45622062656,-2.20103722209
1800EB04461,MANADPDW,Slade Lane,53.45463548649,-2.19755108000
1800EB04471,MANADPGA,Slade Lane,53.45449254319,-2.19702334995
1800EB04491,MANADPGD,East Road,53.45338001137,-2.19578338644
1800EB04501,MANADPGJ,East Road,53.45286885502,-2.19505822698
1800EB04571,MANADPGM,Moseley Road,53.44200082867,-2.20629933429
1800EB04581,MANADPGP,Moseley Road,53.44182997032,-2.20634366924
1800EB04591,MANADPGT,Burnage Lane,53.43262581079,-2.20103107692
1800EB04601,MANADPGW,Burnage Lane,53.43251772103,-2.20116602751
1800EB04611,MANADPJA,Kingsway,53.43228351565,-2.20671880311
1800EB04621,MANADPJD,Rail Station,53.43299749634,-2.20964224873
1800EB04631,MANADPJG,Primary School,53.43363429810,-2.21042807230
1800EB04891,MANADPJT,West Avenue,53.51481113021,-2.16961579901
1800EB04901,MANADPJW,West Avenue,53.51503540986,-2.16991830548
1800EB04911,MANADPMA,Nuthurst Road,53.51734686878,-2.16890203944
1800EB05031,MANADPMD,Elsham Gardens,53.45874684224,-2.18978389517
1800EB05051,MANADPMG,Moseley Road,53.44278558200,-2.19939294869
1800EB05111,MANADPMJ,Business Park,53.50236897876,-2.20535643535
1800EB05231,MANADPMP,Business Park,53.50228829105,-2.20523543726
1800EB05451,MANADPMW,Peel Grove,53.45889114531,-2.19505574178
1800EB05551,MANTDWGJ,St Anselm Hall,53.45410716640,-2.21209551135
1800EB05561,MANADPTA,St Matthew's High School,53.51803004030,-2.17510327221
1800EB05601,MANADPTD,Broadway,53.51698620165,-2.16969990466
1800EB05851,MANADPTG,Lindeth Avenue,53.45715195160,-2.16845187174
1800EB05861,MANADPTJ,Ercall Avenue,53.46894605543,-2.20760513402
1800EB05871,MANADPTM,St Benedict's,53.46952746946,-2.20403772460
1800EB05881,MANADPTP,Ercall Avenue,53.46901785774,-2.20766574149
1800EB05891,MANADPTW,St Benedict's,53.46945310716,-2.20546847790
1800EB05901,MANADPWA,Armitage Court,53.46868622360,-2.20187952624
1800EB05911,MANADPWD,Etihad Campus Metrolink Stop,53.48435274687,-2.19670977498
1800EB05921,MANADPWG,Vickers Street,53.49342105730,-2.20792074659
1800EB05931,MANADPWJ,Blood Centre,53.46450402834,-2.22348950907
1800EB05941,MANADPWM,Velopark Metrolink Stop,53.48118325816,-2.19461564537
1800EB05951,MANADPWP,Prentice Walk,53.47976368281,-2.19424750924
1800EB05961,MANADPWT,Vickers Street,53.49298047032,-2.20800902478
1800EB06021,MANTDTMP,Community Centre,53.48479302191,-2.21752314541
1800EB06131,MANTDTMJ,Garforth Avenue,53.48743967015,-2.22021928597
1800EB06141,MANADTAT,Longsight Library & Learning Centre,53.45760408040,-2.20149556866
1800EB06161,MANTGAJT,Piccadilly,53.48053657871,-2.23436272108
1800EB06171,MANADTAW,Plymouth Grove,53.46029369398,-2.20555974863
1800EB06181,MANADTDA,Longsight Police Station,53.46138652401,-2.20773388477
1800EB06191,MANADTDG,Plymouth Grove West,53.46335789209,-2.21120781775
1800EB06201,MANADTDJ,Winterford Avenue,53.46450481807,-2.21323190184
1800EB06211,MANADTDM,Devonshire Street,53.46605493544,-2.21595104088
1800EB06221,MANADTDP,Apollo Theatre,53.46895583886,-2.22214208323
1800EB06231,MANADTDT,Apollo Theatre,53.46940405075,-2.22279219146
1800EB06241,MANADTDW,Ardwick Post Office,53.46739607129,-2.21985932707
1800EB06251,MANADTGA,Ardwick Post Office,53.46720031961,-2.21877374048
1800EB06261,MANADTGD,Devonshire Street,53.46573295797,-2.21506068748
1800EB06271,MANADTGJ,Winterford Avenue,53.46425453975,-2.21244739712
1800EB06281,MANADTGM,Plymouth Grove West,53.46249824342,-2.20936599911
1800EB06291,MANADTGP,Plymouth Grove,53.46064364466,-2.20590784868
1800EB06301,MANADTGT,Longsight shopping Centre,53.45737142264,-2.20087700410
1800EB06311,MANADTGW,Longsight Library & Learning Centre,53.45801711482,-2.20175355114
1800EB06401,MANADTJM,Church Lane,53.50513700021,-2.19487626130
1800EB06411,MANADTJP,Halliford Road,53.50332204253,-2.19444578934
1800EB06441,MANADTJT,Business Park,53.50335129676,-2.19851653314
1800EB06471,MANADTMA,Princess Street,53.47376924483,-2.23840824085
1800EB06481,MANADTMD,Palmerston Street,53.48086571761,-2.21216883171
1800EB06581,MANTGAMT,Nicholls College,53.46923409024,-2.21747362136
1800EB06611,MANADTMG,Carruthers Street,53.48145216777,-2.21595397288
1800EB06621,MANADTMJ,Sacred Heart Church,53.45785496059,-2.17339440593
1800EB06631,MANADTMP,Ryder Brow Station,53.45600430540,-2.17272423546
1800EB06641,MANADTMT,Beckett Street,53.46074490666,-2.17635819886
1800EB06651,MANADTMW,Hampden Crescent,53.46286326349,-2.17832504808
1800EB06691,MANADTPG,Toft Road,53.45944291761,-2.17544914961
1800EB06701,MANADTPJ,Balmain Avenue,53.45371117314,-2.17953652671
1800EB06711,MANADTPM,Wembley Road,53.45390440206,-2.17654063964
1800EB06721,MANADTPT,Harlow Drive,53.45245124463,-2.17451679293
1800EB06731,MANADTPW,Sandown Crescent,53.45231337241,-2.17040532575
1800EB06741,MANADTWA,Greenlea Avenue,53.45319701945,-2.16845125581
1800EB06751,MANADTWD,Southcross Road,53.45398323450,-2.17179743339
1800EB06761,MANTGAPT,Sheffield Street,53.47696748419,-2.22537817452
1800EB06781,MANADTWJ,New Cross,53.48515108293,-2.23260993579
1800EB06881,MANADTWP,East Didsbury Station,53.41053150078,-2.22159651523
1800EB06971,MANTGDPA,Debdale Lane,53.45680378207,-2.16019770340
1800EB07051,MANTGDJA,Piccadilly Rail Station,53.47823130742,-2.23192414647
1800EB07611,MANADWAP,Newton Heath Terminus,53.50191003456,-2.18361488139
1800EB07691,MANADWAT,Oldham Street,53.48233256096,-2.23523155677
1800EB07701,MANADWDA,Newton Heath Youth Club,53.50012083906,-2.17187864851
1800EB07711,MANADWDG,Cawdor Road,53.44439725693,-2.21837037928
1800EB07721,MANADWDJ,St Mary's,53.45862769859,-2.22711831553
1800EB07741,MANADWDM,Wilmslow Road,53.45560220368,-2.22520466639
1800EB07751,MANADWDP,Rusholme Centre,53.45417418259,-2.22459474606
1800EB07761,MANADWDT,Rusholme Centre,53.45360992031,-2.22352259658
1800EB07771,MANADWDW,Wilmslow Road,53.45264973713,-2.22267427996
1800EB07781,MANADWGA,Platt Fields Park,53.45062090520,-2.22129340896
1800EB07791,MANADWGD,Platt Lane,53.45098817167,-2.22197292078
1800EB07801,MANADWGJ,Grangethorpe Road,53.44827760062,-2.21983575956
1800EB07811,MANADWGM,Grangethorpe Road,53.44837591808,-2.22013740511
1800EB07831,MANADWGP,Old Hall Lane,53.44564763835,-2.21783478673
1800EB07841,MANADWGT,Owen's Park,53.44342653464,-2.21835034050
1800EB07851,MANADWGW,Langley Road,53.44541341683,-2.21811964764
1800EB07861,MANADWJA,Wilmslow Road,53.44272364282,-2.21932529864
1800EB07871,MANADWJD,Wilmslow Road,53.44264147211,-2.22001739751
1800EB07881,MANADWJG,Wellington Road,53.44293443747,-2.22199111030
1800EB07891,MANADWJM,Wellington Road,53.44290531003,-2.22315018807
1800EB07901,MANADWJP,Hart Road,53.44323329590,-2.22559082664
1800EB07911,MANADWJT,Hart Road,53.44323084124,-2.22688554779
1800EB07921,MANADWJW,Yew Tree Road,53.44356416619,-2.23117804836
1800EB07931,MANADWMA,Yew Tree Road,53.44370833071,-2.23099816923
1800EB07941,MANADWMD,Wilbraham Road,53.44401259430,-2.23169236658
1800EB07951,MANADWMG,Hart Road,53.44632492022,-2.23051552709
1800EB07961,MANADWMJ,Platt Lane,53.44883297775,-2.23037855078
1800EB07981,MANADWMT,Heald Place,53.44988048971,-2.22785458203
1800EB08001,MANADWPA,Annesley Road,53.51883168798,-2.16767124459
1800EB08011,MANADWPD,Crown Green Close,53.42448155747,-2.20141396107
1800EB08061,MANTGJMW,Newton Heath Youth Club,53.50015659707,-2.17201447009
1800EB08071,MANTGJTP,Pink Bank Lane,53.45840980694,-2.19256856561
1800EB08101,MANADWPG,Wilmslow Road,53.45109370142,-2.22322327135
1800EB09001,MANADWPJ,Piccadilly Gardens,53.48170355414,-2.23513766153
1800EB10031,MANADWTG,Hayden Court,53.49893100250,-2.21299778347
1800EB10471,MANADWTJ,Turner Street,53.48411568781,-2.23804436315
1800EB10481,MANADWTM,Peel Grove,53.45924161962,-2.19510253226
1800EB10491,MANADWTP,Shopping Arcade,53.45587451336,-2.19290344895
1800EB10501,MANADWTW,Santley Street,53.45468928083,-2.19213005690
1800EB10511,MANAGADA,East Road,53.45369234074,-2.19164367161
1800EB10521,MANAGADG,Stovell Avenue,53.45199552905,-2.19038619724
1800EB10531,MANAGADJ,Stovell Avenue,53.45220180602,-2.19067322701
1800EB10541,MANAGADM,Longden Road,53.45004544805,-2.19012148823
1800EB10551,MANAGADP,Maida Street,53.44927468986,-2.18870266725
1800EB10561,MANAGADT,Maida Street,53.44927594936,-2.18790464254
1800EB10571,MANAGADW,Hornbeam Road,53.44975818230,-2.18415749477
1800EB10581,MANAGAGA,Hornbeam Road,53.44959566908,-2.18462356676
1800EB10591,MANAGAGD,Mount Road,53.45017651209,-2.18098217589
1800EB10601,MANAGAGJ,Leybourne Avenue,53.44989587620,-2.18229097442
1800EB10611,MANAGAGM,Rosina Street,53.47275769253,-2.15383998110
1800EB10641,MANAGAGP,Children's Centre,53.52719393884,-2.19523406920
1800EB10651,MANAGAGT,Mossfield Road,53.52839009857,-2.19480210597
1800EB10661,MANAGAGW,Mossfield Road,53.52927873307,-2.19554538054
1800EB10671,MANAGAJA,Children's Centre,53.52741815300,-2.19553679920
1800EB10681,MANAGAJD,Charlestown Road,53.52429236978,-2.19965533692
1800EB10691,MANAGAJG,Charlestown Road,53.52434672811,-2.19939916847
1800EB10701,MANAGAJM,Athol Street,53.45543034367,-2.15885224429
1800EB11061,MANAGAJP,Asda,53.51355028648,-2.21067346185
1800EB11081,MANTDWGT,Moston Cemetery,53.51698521626,-2.18834022354
1800EB11091,MANAGAJT,Grange Drive,53.52527573271,-2.19747277016
1800EB11181,MANAGAJW,Pottery Lane,53.46545775872,-2.19746582104
1800EB11281,MANAGAMG,Fairfield Avenue,53.47251764895,-2.15177515277
1800EB11291,MANAGAMJ,Whitebrook Road,53.44194534593,-2.23163594340
1800EB11361,MANAGAMP,Wilbraham Road,53.44424597147,-2.23185924727
1800EB11371,MANAGAMT,Gardener's Arms,53.52644176312,-2.17605817078
1800EB11381,MANAGAMW,Gardener's Arms,53.52660315224,-2.17633036352
1800EB11571,MANAGAPA,Haverfield Road,53.52758708857,-2.20728874572
1800EB11581,MANAGAPD,Haverfield Road,53.52742467016,-2.20764998889
1800EB11591,MANAGAPG,Benmore Road,53.52866248833,-2.20392997643
1800EB11601,MANAGAPJ,Benmore Road,53.52887908236,-2.20341811466
1800EB11611,MANAGAPM,Grasdene Avenue,53.52679988472,-2.21027166028
1800EB11621,MANAGAPT,Grasdene Avenue,53.52668301021,-2.21028616533
1800EB11631,MANAGAPW,Housing Office,53.52634780417,-2.21177786861
1800EB11641,MANAGATA,Rochdale Road,53.52151672576,-2.21419715563
1800EB11651,MANAGATD,Rochdale Road,53.52158104807,-2.21341317443
1800EB11661,MANAGATG,Polefield Road,53.52243468772,-2.20847020955
1800EB11671,MANAGATJ,Polefield Road,53.52237240091,-2.20810790925
1800EB11681,MANAGATM,Boggart Hole Clough,53.52352982930,-2.20410137844
1800EB11691,MANAGATP,Boggart Hole Clough,53.52348437177,-2.20440282929
1800EB11701,MANAGATW,Grange Park Road,53.52377039126,-2.20004505242
1800EB11711,MANAGAWA,Grange Park Road,53.52361741300,-2.20014991544
1800EB11721,MANAGAWD,Booth Hall Road,53.52354376961,-2.19577535243
1800EB11731,MANAGAWG,Booth Hall Road,53.52354141176,-2.19720827406
1800EB11741,MANAGAWJ,White Moss Shops,53.52322694287,-2.19161087466
1800EB11751,MANAGAWM,White Moss Shops,53.52325988026,-2.19348136499
1800EB11761,MANAGAWP,Elaine Avenue,53.52274248918,-2.18533406838
1800EB11771,MANAGAWT,The Charlestown,53.52289035605,-2.18848711739
1800EB11781,MANAGDAD,Moston Lane,53.52259269195,-2.18338768599
1800EB11791,MANAGDAG,Moston Lane,53.52253769435,-2.18408127258
1800EB11801,MANAGDAJ,Leyburn Road,53.52322505352,-2.18130891397
1800EB11811,MANAGDAM,Leyburn Road,53.52338791775,-2.18060068864
1800EB11841,MANAGDAP,Gardener's Arms,53.52496600461,-2.17718334237
1800EB11851,MANAGDAT,Gardener's Arms,53.52510158943,-2.17667105133
1800EB11861,MANAGDAW,Shawford Road,53.52161490367,-2.18211650094
1800EB11881,MANAGDGA,Oldham Road,53.50301434720,-2.18443377530
1800EB11891,MANAGDGD,Newton Heath & Moston Metrolink Stop,53.50408372816,-2.18458918943
1800EB11901,MANAGDGJ,St Mary's Nursing Home,53.51058566413,-2.18243104062
1800EB11911,MANAGDGM,Williams Road,53.50669155943,-2.18381650452
1800EB11921,MANAGDGP,Dean Brook Inn,53.50808563413,-2.18324958035
1800EB11931,MANAGDGT,Williams Road,53.50684417557,-2.18393778629
1800EB11941,MANAGDGW,St Mary's Nursing Home,53.50993841121,-2.18248857178
1800EB11951,MANAGDJA,Dean Brook Inn,53.50881382899,-2.18316225622
1800EB11961,MANAGDJD,Tymm Street,53.51336505919,-2.18113104483
1800EB11971,MANAGDJG,Tymm Street,53.51351765497,-2.18126741591
1800EB11981,MANAGDJM,Lightbowne Church,53.51019180227,-2.19283368959
1800EB11991,MANAGDJP,Deanway,53.51004623046,-2.19391869485
1800EB12001,MANAGDJT,Lily Lane,53.51139977418,-2.19618676027
1800EB12831,MANAGDMA,Piccadilly Rail Station,53.47785379612,-2.23192208559
1800EB12901,MANAGDMG,Farmers Arms,53.43083728615,-2.20091727211
1800EB13541,MANTJTJA,The Unicorn,53.48288569356,-2.23732922306
1800EB13651,MANTJTJW,Piccadilly Gardens,53.48094752198,-2.23564580227
1800EB13661,MANTJTPJ,Cartmel Court,53.52943972675,-2.19047736320
1800EB13701,MANTMTAJ,Piccadilly Rail Station,53.47633985548,-2.22927713720
1800EB13711,MANAGDMJ,East Didsbury Metrolink Stop,53.41168683170,-2.21899993144
1800EB13721,MANAGDMP,East Didsbury Metrolink Stop,53.41162460228,-2.21862351432
1800EB13741,MANAGDMT,School Lane,53.41452207584,-2.21689318197
1800EB13751,MANAGDMW,School Lane,53.41535811288,-2.21683725994
1800EB13761,MANAGDPA,Homestead Crescent,53.41812969337,-2.21512106548
